Town,County,Latitude,Longitude,Elevation,Population
Achadh an Iuir,Cavan,53.8338889,-7.0755556,380,2428
Achadh an Iúir,Cavan,53.8338889,-7.0755556,380,2428
Aghadreenagh,Cavan,54.0783333,-7.3094444,249,2498
Aghalackan,Cavan,53.9727778,-7.3002778,501,2425
Altateskin,Cavan,54.1511111,-7.7847222,574,2282
An Blaic,Cavan,54.2927778,-7.8752778,239,2645
Cavan,Cavan,53.9908333,-7.3605556,370,2425
An Cabhán,Cavan,53.9908333,-7.3605556,370,2425
An Cnoc Rua,Cavan,54.1,-7.3166667,249,2733
An Muileann Iarainn,Cavan,54.1947222,-7.7044444,246,2565
An Mullach,Cavan,53.8130556,-6.9513889,416,3523
Ardlougher,Cavan,54.0619444,-7.5755556,262,2387
Ardmoneen,Cavan,54.1105556,-7.8236111,419,1845
Armhach,Cavan,53.9166667,-7.5833333,242,2345
Ármhach,Cavan,53.9166667,-7.5833333,242,2345
Arva,Cavan,53.9166667,-7.5833333,242,2345
Arvagh,Cavan,53.9166667,-7.5833333,242,2345
Aubawn,Cavan,54.0222222,-7.5430556,423,2308
Baile Sheamais Dhuibh,Cavan,53.8652778,-7.2027778,498,2448
Baile Shéamais Dhuibh,Cavan,53.8652778,-7.2027778,498,2448
Baileborough,Cavan,53.9166667,-6.9666667,698,2444
Bailieborough,Cavan,53.9166667,-6.9666667,698,2444
Bakers Bridge,Cavan,54.0616667,-7.42,232,2415
Ballinagh,Cavan,53.9333333,-7.4166667,275,2426
Ballyconnell,Cavan,54.1166667,-7.5833333,239,2493
Ballyhaise,Cavan,54.05,-7.3166667,242,2498
Ballyhugh,Cavan,54.085,-7.5327778,275,2502
Ballyjamesduff,Cavan,53.8652778,-7.2027778,498,2448
Ballymagauran,Cavan,54.0708333,-7.6797222,242,1880
Ballynahaia,Cavan,54.0708333,-7.0405556,413,2815
Ballynallon Bridge,Cavan,54.0502778,-7.2352778,249,2622
Bawnboy,Cavan,54.1213889,-7.6755556,321,2230
Beal Atha Conaill,Cavan,54.1166667,-7.5833333,239,2493
Béal Átha Conaill,Cavan,54.1166667,-7.5833333,239,2493
Beal Atha hEis,Cavan,54.05,-7.3166667,242,2498
Béal Átha hÉis,Cavan,54.05,-7.3166667,242,2498
Beal Atha na nEach,Cavan,53.9333333,-7.4166667,275,2426
Béal Átha na nEach,Cavan,53.9333333,-7.4166667,275,2426
Beal Tairbirt,Cavan,54.1,-7.45,246,2475
Béal Tairbirt,Cavan,54.1,-7.45,246,2475
Beglieve,Cavan,53.9425,-7.0355556,498,2426
Bellaheady Bridge,Cavan,54.0897222,-7.6191667,242,2454
Bellahillan Bridge,Cavan,53.9616667,-7.4555556,305,2425
Bellanacargy,Cavan,54.0416667,-7.2491667,259,2622
Bellananagh,Cavan,53.9333333,-7.4166667,275,2426
Bellville,Cavan,53.9444444,-7.4122222,291,2426
Belturbet,Cavan,54.1,-7.45,246,2475
Binbane,Cavan,54.0130556,-7.12,557,2422
Binkeeragh,Cavan,54.1830556,-7.7488889,452,2528
Blacklion,Cavan,54.2927778,-7.8752778,239,2645
Blackrocks Cross,Cavan,54.1638889,-7.7830556,646,2282
Boagh,Cavan,54.045,-7.0125,324,2815
Bursan,Cavan,54.1922222,-7.8580556,1092,2433
Butlers Bridge,Cavan,54.0427778,-7.3763889,249,2416
Callaghs,Cavan,54.0705556,-7.6002778,249,2287
Canningstown,Cavan,53.9794444,-7.0461111,498,2425
Cargagh,Cavan,53.9455556,-7.2552778,495,2426
Cargagh,Cavan,53.8988889,-7.0863889,442,2423
Cargaghoge,Cavan,54.038889,-6.8936111,456,3121
Carn Cross Roads,Cavan,54.0752778,-7.5527778,278,2387
Carrickallen,Cavan,53.9858333,-7.1388889,528,2425
Carricknashoke,Cavan,53.9802778,-7.1591667,508,2425
Cartronnagilta,Cavan,54.1113889,-7.7716667,252,1939
Cavan,Cavan,53.9908333,-7.3605556,370,2425
Cill na Leice,Cavan,53.8666667,-7.3166667,495,2532
Cill na Seanratha,Cavan,54.0166667,-7.5333333,387,2420
Cill na Seanrátha,Cavan,54.0166667,-7.5333333,387,2420
Claragh,Cavan,54.085,-7.2780556,249,2872
Clements Town,Cavan,54.0805556,-7.0975,255,2670
Clifferna,Cavan,53.9577778,-7.1747222,498,2426
Cloghoge,Cavan,54.2030556,-7.7133333,291,2528
Cloverhill,Cavan,54.0805556,-7.3677778,347,2435
Coill an Chollaigh,Cavan,53.9166667,-6.9666667,698,2444
Commons Gate,Cavan,54.0913889,-7.4227778,374,2475
Cootehill,Cavan,54.0725,-7.0819444,269,2681
Coppanagh Mills,Cavan,54.0875,-7.1955556,252,3086
Coppanaghmore,Cavan,54.1930556,-7.9302778,646,2100
Cordingin,Cavan,53.9797222,-7.1911111,439,2425
Corgreagh,Cavan,54.0297222,-7.1469444,354,2422
Corick Bridge,Cavan,54.0552778,-7.125,259,2670
Corlea,Cavan,54.2302778,-7.9783333,377,2168
Corleckagh,Cavan,54.2025,-7.9519444,590,2100
Cornafean,Cavan,53.9463889,-7.4855556,252,2426
Cornagee,Cavan,54.2736111,-7.9027778,564,2542
Cornagunleog,Cavan,54.0908333,-7.7108333,246,2052
Cornahaw,Cavan,54.2461111,-7.9255556,498,2335
Corracleigh,Cavan,54.1805556,-7.8633333,843,2433
Corraneary,Cavan,53.9930556,-7.0247222,495,2426
Corravilla,Cavan,53.9730556,-6.9536111,488,2548
Corraweelis,Cavan,53.9619444,-7.3016667,498,2425
Corville,Cavan,54.1047222,-7.6463889,239,2368
Cronery,Cavan,54.1091667,-7.7588889,252,1939
Cross Forts,Cavan,54.0280556,-7.3316667,396,2420
Crossdoney,Cavan,53.9527778,-7.4333333,249,2426
Crossmakeelan,Cavan,53.9394444,-6.9077778,784,2576
Cullentragh,Cavan,54.0236111,-7.3052778,419,2420
Culliagh,Cavan,54.1011111,-7.7325,246,2052
Cullies Cross Roads,Cavan,53.9952778,-6.9661111,488,2455
Daggan,Cavan,54.0283333,-7.3663889,255,2420
Danesfort,Cavan,53.9888889,-7.4275,249,2425
Dernakesh,Cavan,54.0213889,-7.0436111,390,2432
Derry,Cavan,53.9922222,-7.5458333,249,2261
Derrydamph,Cavan,53.9802778,-7.1591667,508,2425
Derrygoss,Cavan,54.0480556,-7.405,232,2416
Derrylane,Cavan,53.9669444,-7.5416667,311,2261
Derrynacreve,Cavan,54.155,-7.7175,249,2364
Derrynananta,Cavan,54.1625,-7.8711111,935,2125
Derryvony,Cavan,54.1502778,-7.4202778,360,2614
Doogary,Cavan,54.0377778,-7.6291667,249,1764
Dowra,Cavan,54.1911111,-8.015,223,1788
Droichead an Bhuitlearaigh,Cavan,54.0427778,-7.3763889,249,2416
Droichead an Bhuitléaraigh,Cavan,54.0427778,-7.3763889,249,2416
Drumaloor,Cavan,54.0705556,-7.4061111,311,2416
Drumalure,Cavan,54.0705556,-7.4061111,311,2416
Drumane,Cavan,54.1072222,-7.6180556,249,2454
Drumasladdy,Cavan,54.0891667,-7.4977778,255,2491
Drumbar,Cavan,54.1788889,-7.6661111,656,2626
Drumbrollisk,Cavan,54.0675,-7.1908333,249,2659
Drumcask,Cavan,54.1725,-7.7347222,275,2528
Drumcondra,Cavan,54.0208333,-7.0138889,410,2501
Drumconnick,Cavan,53.9880556,-7.3866667,282,2425
Drumcor,Cavan,54.0986111,-7.2905556,246,2872
Drumcrow South,Cavan,53.9561111,-7.5783333,269,2345
Drumgoon,Cavan,54.0369444,-7.0575,360,2432
Drumgor,Cavan,53.9816667,-7.4380556,308,2425
Drumhillagh,Cavan,54.0333333,-7.2266667,262,2420
Drumlane,Cavan,54.0191667,-7.2294444,305,2420
Drumliff,Cavan,54.0641667,-7.3305556,236,2498
Drummany,Cavan,54.0275,-7.5888889,249,2049
Drummullagh,Cavan,54.0530556,-7.5072222,298,2414
Drumnatread,Cavan,54.069444,-7.1258333,246,2680
Drumroe,Cavan,53.9469444,-7.5175,383,2429
Drung,Cavan,54.035,-7.2386111,272,2420
Drutamon,Cavan,53.9913889,-7.0794444,521,2425
Dun An Ri,Cavan,53.9080556,-6.8055556,298,3439
Dún An Ri,Cavan,53.9080556,-6.8055556,298,3439
Duneena,Cavan,53.9430556,-7.0141667,485,2426
Dunglave,Cavan,54.1611111,-7.7066667,259,2437
Eighter,Cavan,53.8177778,-7.1347222,462,2931
Erraran,Cavan,54.125,-7.6977778,436,2230
Eylagh,Cavan,54.0447222,-7.6025,249,2287
Fartrin,Cavan,54.0875,-7.5897222,246,2454
Fartrin Cross Roads,Cavan,54.0797222,-7.595,246,2287
Gannons Cross,Cavan,54.0994444,-7.365,423,2577
Gartbrattan,Cavan,54.011111,-7.4388889,305,2420
Glangavlen,Cavan,54.1947222,-7.89,505,2271
Glangevlin,Cavan,54.1947222,-7.89,505,2271
Glasleck,Cavan,53.9741667,-6.9266667,488,2548
Glasstown,Cavan,54.0422222,-7.5133333,314,2414
Glen,Cavan,54.1097222,-7.5013889,246,2502
Glengavlen,Cavan,54.1947222,-7.89,505,2271
Glengevlin,Cavan,54.1947222,-7.89,505,2271
Gortahill,Cavan,54.2847222,-7.9644444,249,2006
Gowlan,Cavan,54.2508333,-7.9002778,767,2542
Gowlan,Cavan,54.1372222,-7.795,439,2235
Greaghagibney,Cavan,53.9427778,-7.1302778,547,2426
Greaghrahan,Cavan,54.0927778,-7.5375,265,2502
Greenville,Cavan,54.0697222,-7.5844444,252,2287
Gubaveeny,Cavan,54.2444444,-7.9705556,406,2168
Gubrawnlly,Cavan,54.1611111,-7.7433333,288,2364
Kilconny,Cavan,54.1019444,-7.4488889,246,2475
Kilcrossduff,Cavan,53.965,-6.9038889,498,2774
Kildorough,Cavan,53.8419444,-7.2125,341,2434
Kildorragh,Cavan,53.8419444,-7.2125,341,2434
Kill,Cavan,54.0330556,-7.1102778,498,2422
Killashandra,Cavan,54.0166667,-7.5333333,387,2420
Killeshandra,Cavan,54.0166667,-7.5333333,387,2420
Killycluggin,Cavan,54.0933333,-7.6361111,239,2368
Killyconnan,Cavan,53.9647222,-7.2688889,495,2425
Killycreeny,Cavan,54.0638889,-7.1486111,246,2680
Killykeen,Cavan,53.9972222,-7.4569444,393,2425
Killylea,Cavan,54.1216667,-7.4102778,403,2486
Killyran,Cavan,54.08,-7.6936111,252,1880
Killyvahan,Cavan,54.0180556,-7.0863889,518,2422
Killyvally,Cavan,53.9877778,-7.4422222,311,2425
Killyvanny,Cavan,54.0369444,-7.3530556,291,2420
Kilmacaran,Cavan,54.02778,-6.9566667,400,2891
Kilnacreevy,Cavan,53.9611111,-7.2122222,498,2425
Kilnacrew,Cavan,54.05,-7.0375,295,2815
Kilnaleck,Cavan,53.8666667,-7.3166667,495,2532
Kilsob,Cavan,54.1175,-7.6636111,288,2368
Kinagha,Cavan,54.1013889,-7.3925,488,2486
Kingscourt,Cavan,53.9080556,-6.8055556,298,3439
Knappagh House,Cavan,54.0205556,-6.9644444,403,2680
Knockbride,Cavan,53.9863889,-6.9955556,498,2455
Lahard,Cavan,53.9833333,-7.5,298,2425
Larah,Cavan,53.9933333,-7.2158333,403,2425
Latsey,Cavan,53.9872222,-7.05,498,2425
Lavey,Cavan,53.9697222,-7.2425,488,2425
Leck,Cavan,54.2980556,-7.9352778,374,2403
Ledonigan,Cavan,53.9430556,-7.075,495,2426
Legnagrow,Cavan,54.2125,-7.9052778,590,2447
Lisagoan,Cavan,53.9494444,-6.8730556,547,2841
Lisduff,Cavan,53.9663889,-7.3833333,344,2425
Lisduff,Cavan,53.7972222,-7.0294444,442,2727
Lisnageer,Cavan,54.0716667,-7.1630556,252,2680
Lisnamandra,Cavan,53.9677778,-7.4194444,249,2425
Lisreagh,Cavan,53.9516667,-7.3325,498,2426
Madabawn Bridge,Cavan,54.0297222,-7.0225,337,2501
Magherintemple,Cavan,54.0955556,-7.2197222,252,3008
McShanes Bridge,Cavan,54.066667,-7.2236111,242,2622
McShanes Bridge,Cavan,54.066667,-7.2236111,242,2622
Milltown,Cavan,54.065,-7.4775,255,2414
Milltown,Cavan,53.9819444,-6.9130556,492,2774
Moher,Cavan,54.1188889,-7.6311111,344,2368
Moneensauran,Cavan,54.1725,-7.8783333,774,2271
Money,Cavan,53.9819444,-6.9130556,492,2774
Moneynure,Cavan,54.13,-7.7375,285,2364
Mountain House,Cavan,53.98,-7.1086111,541,2425
Mountain Lodge,Cavan,53.98,-7.1086111,541,2425
Muinchille,Cavan,54.0725,-7.0819444,269,2681
Mullagh,Cavan,53.8130556,-6.9513889,416,3523
Mully,Cavan,54.2030556,-7.9022222,495,2271
New Inn,Cavan,53.9019444,-7.1769444,498,2423
Nolagh,Cavan,53.9486111,-6.9213889,620,2486
Northlands,Cavan,53.9630556,-6.8588889,498,3051
Oggal,Cavan,54.2597222,-7.9266667,547,2324
Ouley,Cavan,54.0375,-7.315,324,2420
Plush,Cavan,54.0594444,-7.3691667,232,2435
Poles,Cavan,53.9877778,-7.2797222,501,2425
Port,Cavan,54.0422222,-7.5133333,314,2414
Pottlereagh,Cavan,54.0575,-7.0255556,377,2815
Putiaghan,Cavan,54.0827778,-7.4425,229,2415
Raheelan,Cavan,54.1208333,-7.4502778,229,2475
Rakane,Cavan,54.0436111,-7.1080556,456,2670
Raleagh,Cavan,54.0311111,-7.6263889,249,1764
Redhills,Cavan,54.1,-7.3166667,249,2733
Relagh,Cavan,53.8705556,-6.9597222,505,2724
Relaghbeg,Cavan,53.8705556,-6.9597222,505,2724
Rivory,Cavan,54.0488889,-7.4222222,236,2415
Ryefield,Cavan,53.7880556,-7.0586111,377,3382
Scarvy Bridge,Cavan,54.0508333,-7.0716667,249,2681
Searcog,Cavan,54,-6.9,501,2774
Searcóg,Cavan,54,-6.9,501,2774
Shercock,Cavan,54,-6.9,501,2774
Snakeel,Cavan,54.0283333,-7.5094444,301,2420
Sraith an Domhain,Cavan,53.9833333,-7.2333333,442,2425
Sralahan,Cavan,54.1297222,-7.6352778,738,2507
Sraloaghan,Cavan,54.0916667,-7.7322222,249,2052
Sruhanagh,Cavan,54.1888889,-7.9836111,849,1975
Stradone,Cavan,53.9833333,-7.2333333,442,2425
Stragelliff,Cavan,53.9966667,-7.2955556,505,2425
Straheglin,Cavan,54.0911111,-7.435,311,2475
Swanlinbar,Cavan,54.1947222,-7.7044444,246,2565
Teeboy,Cavan,54.1147222,-7.7291667,278,2052
Tirlahode Lower,Cavan,53.9461111,-7.1863889,501,2426
Tober,Cavan,54.2166667,-8.019444,410,1858
Toberlyan,Cavan,54.0744444,-7.6369444,242,2094
Tonyduff,Cavan,53.9572222,-7.0588889,498,2426
Treehog Cross Roads,Cavan,54.0791667,-7.2613889,255,2574
Tullycoe,Cavan,54.091667,-7.2008333,252,3086
Tullynamoyle,Cavan,54.2247222,-8.0219444,593,1858
Tullyvin,Cavan,54.0483333,-7.1447222,239,2680
Uragh,Cavan,54.1930556,-7.6972222,249,2565
Virginia,Cavan,53.8338889,-7.0755556,380,2428
Waterloo,Cavan,53.9333333,-7.1302778,561,2426
Aghaglinny North,Clare,53.1391667,-9.2188889,114,1134
Aglish,Clare,52.9844444,-9.025,259,2500
Ahnagh Cross,Clare,52.8208333,-9.4166667,275,1863
An Fhiacail,Clare,52.9247222,-8.6452778,252,2503
An Geata Ban,Clare,52.9491667,-8.3713889,183,1554
An Geata Bán,Clare,52.9491667,-8.3713889,183,1554
An Leacht,Clare,52.9366667,-9.3452778,180,2113
An Scairbh,Clare,52.8988889,-8.5091667,272,2348
An Tulach,Clare,52.8647222,-8.7605556,498,2510
Annacarriga,Clare,52.8511111,-8.5038889,616,2387
Annaghneal Bridges,Clare,52.8933333,-8.6575,200,2507
Annagore Bridge,Clare,52.7569444,-8.7761111,190,2514
Ardsollus,Clare,52.7975,-8.8888889,29,2511
Ardsollus Bridge,Clare,52.7975,-8.8888889,29,2511
Ath Leathen,Clare,52.8047222,-8.6322222,305,2511
Áth Leathen,Clare,52.8047222,-8.6322222,305,2511
Athlunkard Bridge,Clare,52.6811111,-8.6097222,42,3819
Aughaglanna Bridge,Clare,52.8277778,-9.1677778,249,2511
Aughanloge Bridge,Clare,52.6477778,-9.3158333,6,2555
Aughboy,Clare,52.7391667,-8.5402778,127,3531
Aughinish,Clare,53.165,-9.0794444,3,1500
Aughrim,Clare,53.0102778,-8.9444444,190,2555
Badyke,Clare,52.8838889,-8.6011111,213,2507
Baile Ui Bheachain,Clare,53.1180556,-9.1502778,78,1903
Baile Uí Bheacháin,Clare,53.1180556,-9.1502778,78,1903
Baile Ui Bheolain,Clare,52.9305556,-8.4258333,180,1972
Baile Uí Bheoláin,Clare,52.9305556,-8.4258333,180,1972
Ballagh,Clare,52.9611111,-9.2358333,416,2500
Balleen Bridge,Clare,52.8119444,-9.1430556,347,2511
Ballinruan,Clare,52.9530556,-8.8261111,419,2556
Balliny,Clare,53.0861111,-9.2852778,1017,1801
Ballycarick Bridge,Clare,52.7363889,-9.0608333,22,2517
Ballyconry,Clare,53.1216667,-9.1819444,255,1909
Ballyea,Clare,52.9111111,-9.2138889,242,2507
Ballyelly,Clare,53.0955556,-9.2705556,925,1801
Ballygastell,Clare,53.0333333,-9.2475,331,2497
Ballyhehan,Clare,53.1030556,-9.0880556,272,2093
Ballylaan,Clare,52.9466667,-9.4583333,226,852
Ballylaun,Clare,52.9466667,-9.4583333,226,852
Ballymacanaun,Clare,52.9427778,-9.4516667,49,852
Ballynacally,Clare,52.7191667,-9.0658333,3,2517
Ballynahown,Clare,53.0658333,-9.3283333,501,1946
Ballynew Bridge,Clare,52.8616667,-9.3536111,429,2411
Ballyteige,Clare,52.9597222,-8.9561111,137,2522
Ballyvaghan,Clare,53.1180556,-9.1502778,78,1903
Ballyvaughan,Clare,53.1180556,-9.1502778,78,1903
Ballyvorney,Clare,52.7875,-8.4827778,180,2858
Ballyvramneen,Clare,52.9188889,-9.2508333,160,2503
Bargarriff,Clare,52.955,-8.3702778,187,1554
Beaghfa,Clare,52.7730556,-9.0772222,275,2514
Bealaclugga,Clare,53.1216667,-9.0683333,226,2304
Bealaha,Clare,52.7169444,-9.5866667,3,1326
Behagh,Clare,53.1366667,-9.0644444,216,1500
Bell Harbour,Clare,53.1216667,-9.0683333,226,2304
Bellia,Clare,52.6225,-9.7311111,134,1592
Bellina,Clare,52.6225,-9.7311111,134,1592
Bishopsquarter,Clare,53.1258333,-9.1194444,311,1170
Blackweir Bridge,Clare,52.6669444,-9.5883333,3,2172
Bodyke,Clare,52.8838889,-8.6011111,213,2507
Bohaten,Clare,52.9580556,-8.4805556,633,2208
Boirinn,Clare,53.1466667,-9.0755556,104,1500
Boston,Clare,53.0325,-8.9283333,183,2555
Brickhill Bridge,Clare,52.7066667,-8.7727778,167,3581
Bridge of Ross,Clare,52.5858333,-9.8666667,3,601
Broadford,Clare,52.8047222,-8.6322222,305,2511
Bunratty,Clare,52.6966667,-8.8155556,3,3627
Bunratty East,Clare,52.7,-8.8166667,3,3627
Bunratty West,Clare,52.6833333,-8.8166667,0,3627
Burren,Clare,53.1466667,-9.0755556,104,1500
Caher,Clare,52.9647222,-8.6452778,232,2512
Caher Lower,Clare,53.1247222,-9.2486111,616,2069
Caherbannagh,Clare,53.1169444,-9.2355556,577,2069
Caherconnell,Clare,53.0411111,-9.1475,452,2497
Caherlean,Clare,52.7383333,-9.5694444,3,1662
Caherloughlin,Clare,53.1341667,-9.1080556,242,1170
Cahermacnaghten,Clare,53.0494444,-9.1933333,524,2481
Cahersherkin,Clare,52.9466667,-9.2294444,351,2503
Callaghans Bridge,Clare,52.7491667,-8.6427778,285,2858
Callaghans Bridge,Clare,52.7491667,-8.6427778,285,2858
Cappagh,Clare,52.6333333,-9.5,0,2509
Cappanavarnoge,Clare,52.6572222,-9.1544444,246,3371
Capparoe,Clare,52.9172222,-8.5805556,219,2503
Carhameere,Clare,52.7519444,-9.0641667,144,2514
Carraig an Chabhaltaigh,Clare,52.6033333,-9.7080556,0,1955
Carran,Clare,53.0380556,-9.0780556,495,2497
Carranahingan Bridge,Clare,52.8763889,-9.0102778,82,2507
Carrigaholt,Clare,52.6033333,-9.7080556,0,1955
Carrowauff,Clare,52.9858333,-9.3516667,328,2206
Castletown,Clare,53.0280556,-9.0686111,498,2497
Cill an Disirt,Clare,52.6716667,-9.1063889,3,2794
Cill an Dísirt,Clare,52.6716667,-9.1063889,3,2794
Cill Bheathach,Clare,52.55,-9.8672222,0,662
Cill Chaoi,Clare,52.6791667,-9.6441667,36,1562
Cill Chisin,Clare,52.8066667,-8.7458333,206,2511
Cill Chisín,Clare,52.8066667,-8.7458333,206,2511
Cill Dalua,Clare,52.8066667,-8.4436111,180,2359
Cill Fhionnurach,Clare,52.9938889,-9.2136111,242,2500
Cill Fhionnúrach,Clare,52.9938889,-9.2136111,242,2500
Cill Inine Baoith,Clare,52.9719444,-9.0813889,187,2500
Cill Iníne Baoith,Clare,52.9719444,-9.0813889,187,2500
Cill Mhichil,Clare,52.7213889,-9.3186111,246,2517
Cill Mhichíl,Clare,52.7213889,-9.3186111,246,2517
Cill Mhicil,Clare,52.7213889,-9.3186111,246,2517
Cill Mhicíl,Clare,52.7213889,-9.3186111,246,2517
Cill Mhuire,Clare,52.7761111,-8.7827778,154,2514
Cill Rois,Clare,52.6397222,-9.4833333,3,2509
Clare,Clare,52.8155556,-8.9666667,19,2511
Clarecastle,Clare,52.8155556,-8.9666667,19,2511
Clareen Bridge,Clare,52.7744444,-9.0166667,78,2514
Clareville,Clare,53.1166667,-9.1333333,183,1903
Claureen Bridge,Clare,52.85,-8.9983333,88,2510
Cleedagh Bridge,Clare,52.8588889,-9.4277778,101,1261
Cloghannmore,Clare,52.8527778,-9.3372222,433,2411
Cloghanulk,Clare,53.0886111,-9.3255556,147,1207
Cloghaun Bridge,Clare,52.8947222,-8.6305556,206,2507
Clonrush,Clare,52.9363889,-8.3541667,180,1554
Cloomagro,Clare,52.9558333,-8.6855556,590,2503
Clooncoorha,Clare,52.6813889,-9.4816667,3,2492
Clooncorha,Clare,52.6813889,-9.4816667,3,2492
Clooncullin Bridge,Clare,52.6991667,-9.3872222,75,2520
Cloongaheen East,Clare,52.8086111,-8.5880556,249,2511
Cloonlara,Clare,52.7222222,-8.5538889,121,2963
Cloonmore,Clare,52.76,-9.0861111,249,2514
Cloonusker,Clare,52.9413889,-8.5716667,328,2503
Cloony Smith,Clare,52.9377778,-9.2036111,252,2503
Cluain Lara,Clare,52.7222222,-8.5538889,121,2963
Cluain Lára,Clare,52.7222222,-8.5538889,121,2963
Connolly,Clare,52.8294444,-9.1930556,305,2511
Coolbaun,Clare,52.9886111,-8.9163889,157,2591
Coolcoosaun,Clare,52.9244444,-8.5344444,219,2442
Coolmeen,Clare,52.65,-9.2205556,114,2915
Coolnacreehaun Bridge,Clare,52.7355556,-9.4927778,91,2208
Cooraclare,Clare,52.7008333,-9.4208333,49,2520
Cora Chaitlin,Clare,52.76,-8.8955556,16,2514
Cora Chaitlín,Clare,52.76,-8.8955556,16,2514
Cora Finne,Clare,52.9477778,-9.0630556,173,2503
Corlea Bridge,Clare,53.0155556,-8.5888889,446,2626
Corofin,Clare,52.9477778,-9.0630556,173,2503
Corrofin,Clare,52.9477778,-9.0630556,173,2503
Cratloe,Clare,52.695,-8.7597222,59,3581
Creegh,Clare,52.7455556,-9.4280556,295,2480
Cregg,Clare,53.1347222,-9.2058333,488,939
Croisin,Clare,52.9394444,-8.8933333,206,2526
Croisín,Clare,52.9394444,-8.8933333,206,2526
Croony Bridge,Clare,52.6897222,-9.2316667,187,2520
Cross,Clare,52.5980556,-9.7716667,85,1259
Crows Bridge,Clare,52.8475,-9.1936111,249,2510
Crows Bridge,Clare,52.8475,-9.1936111,249,2510
Crusheen,Clare,52.9394444,-8.8933333,206,2526
Cuar an Chlair,Clare,52.7008333,-9.4208333,49,2520
Cuar an Chláir,Clare,52.7008333,-9.4208333,49,2520
Cuinche,Clare,52.8186111,-8.8669444,59,2511
Cullenagh,Clare,52.9288889,-9.2611111,150,2503
Deerpark,Clare,53.02778,-9.1261111,436,2497
Derreen,Clare,53.0886111,-9.3122222,288,1207
Derren,Clare,52.9530556,-9.4222222,144,852
Derroran Bridge,Clare,52.9611111,-8.4247222,252,2532
Derrycalliff Lower,Clare,52.9313889,-8.8538889,252,2551
Derrycon,Clare,52.9491667,-8.4491667,367,1972
Derrycrossaun Bridge,Clare,52.6988889,-9.3447222,88,2520
Derryfadda,Clare,53.0172222,-8.6883333,236,2662
Derryheena,Clare,52.9275,-8.8369444,479,2551
Derrymore,Clare,52.9094444,-8.5733333,196,2503
Derrymore Bridge,Clare,52.8827778,-9.2472222,246,2507
Derryvough,Clare,52.9358333,-8.8361111,436,2551
DEsterres Bridge,Clare,52.7141667,-8.7808333,95,2654
DEsterres Bridge,Clare,52.7141667,-8.7808333,95,2654
Dooglaun,Clare,52.9761111,-8.6886111,616,2534
Doolin,Clare,53.0225,-9.3933333,88,1245
Doonaha,Clare,52.6225,-9.6444444,0,2333
Doonbeg,Clare,52.7319444,-9.5227778,3,1885
Doonyvardan,Clare,53.0630556,-9.1916667,538,2481
Doorus,Clare,52.9827778,-8.6811111,354,2534
Drehidnagower Bridge,Clare,52.8558333,-8.9938889,55,2510
Drehidnaraga Bridge,Clare,52.8061111,-9.3813889,213,2408
Drinagh,Clare,52.9280556,-9.2016667,262,2503
Droichead Abhann O gCearnaigh,Clare,52.7413889,-8.7741667,141,2654
Droíchead Abhann Ó gCearnaigh,Clare,52.7413889,-8.7741667,141,2654
Droichead an Chlair,Clare,52.8155556,-8.9666667,19,2511
Droíchead an Chláir,Clare,52.8155556,-8.9666667,19,2511
Droichead Ui Bhriain,Clare,52.7547222,-8.4969444,150,2858
Droichead Uí Bhriain,Clare,52.7547222,-8.4969444,150,2858
Drumadrohid,Clare,52.8016667,-9.0575,259,2511
Drumandoora,Clare,52.9961111,-8.7330556,449,2589
Drumellihy,Clare,52.7180556,-9.4519444,164,2480
Drumsillagh,Clare,52.7675,-8.6244444,377,2514
Dysert,Clare,52.875,-9.1816667,226,2510
Effernan,Clare,52.6444444,-9.1830556,98,3097
Elliss Bridge,Clare,52.7694444,-8.5230556,226,2717
Ennis,Clare,52.8436111,-8.9863889,49,2510
Ennistimon,Clare,52.9447222,-9.2922222,141,2373
Ennistymon,Clare,52.9447222,-9.2922222,141,2373
Fahanlunaghta Bridge,Clare,52.8808333,-9.2891667,314,2507
Fahee,Clare,53.0363889,-9.0444444,508,2497
Fair Green,Clare,52.8713889,-8.9086111,347,2510
Fanore,Clare,53.1180556,-9.2902778,170,1801
Fanore Bridge,Clare,53.1180556,-9.2902778,170,1801
Farmoyle,Clare,52.8563889,-9.1997222,249,2510
Farrihy,Clare,52.7044444,-9.6033333,3,2172
Feakle,Clare,52.9247222,-8.6452778,252,2503
Feakle Lower,Clare,52.9155556,-8.6336111,249,2507
Feenagh,Clare,53.1113889,-9.2063889,633,1909
Finavarra,Clare,53.1513889,-9.1005556,45,1170
Fisherstreet,Clare,53.0172222,-9.3861111,164,1245
Flagmount,Clare,52.9858333,-8.6438889,354,2512
Fodry,Clare,52.575,-9.8911111,3,400
Fountain Cross,Clare,52.8722222,-9.0291667,170,2510
Furmina,Clare,53.05,-9.5166667,0,0
Furnace,Clare,52.9422222,-8.3883333,183,1835
Garrauncam Bridge,Clare,52.8997222,-8.6966667,183,2507
Gilloge Bridge,Clare,52.6858333,-8.5744444,88,4026
Glen Bridge,Clare,52.8211111,-9.2308333,511,2511
Glenbonniv,Clare,52.9444444,-8.6577778,534,2503
Glendree,Clare,52.9202778,-8.7233333,383,2512
Glenmore,Clare,52.7669444,-9.265,492,2514
Glenroe,Clare,53.063889,-9.0280556,515,2532
Gortaheera,Clare,52.7636111,-9.3325,479,2514
Gortnacummer,Clare,52.9055556,-8.7105556,213,2507
Gortnamearacaun,Clare,52.9452778,-8.8138889,528,2556
Goulbourne Bridge,Clare,52.7022222,-9.3016667,101,2520
Grean Mountain,Clare,52.7936111,-8.6144444,462,2511
Hell Bridge,Clare,52.8402778,-8.8288889,170,2510
Hogans Bridge,Clare,52.8458333,-9.3755556,249,1989
Hogans Bridge,Clare,52.8458333,-9.3755556,249,1989
Hurlers Cross,Clare,52.7155556,-8.8302778,3,2697
Illaunbaun,Clare,52.8666667,-9.3152778,508,2503
Inagh,Clare,52.875,-9.1816667,226,2510
Inis,Clare,52.8436111,-8.9863889,49,2510
Inis Diomain,Clare,52.9447222,-9.2922222,141,2373
Inis Díomáin,Clare,52.9447222,-9.2922222,141,2373
Kilbaha,Clare,52.55,-9.8672222,0,662
Kilbane,Clare,52.8022222,-8.5647222,219,2512
Kilclaran,Clare,52.9536111,-8.6458333,282,2503
Kilconnell,Clare,52.9469444,-9.4488889,269,852
Kilcorkan,Clare,53.0452778,-8.9077778,170,2767
Kildysart,Clare,52.6716667,-9.1063889,3,2794
Kilfearagh,Clare,52.6597222,-9.6544444,111,2264
Kilfenora,Clare,52.9938889,-9.2136111,242,2500
Kilkee,Clare,52.6791667,-9.6441667,36,1562
Kilkerin,Clare,52.6075,-9.3147222,62,3286
Kilkishen,Clare,52.8066667,-8.7458333,206,2511
Killadysert,Clare,52.6716667,-9.1063889,3,2794
Killaloe,Clare,52.8066667,-8.4436111,180,2359
Killanena,Clare,52.9861111,-8.7016667,616,2534
Killeedy,Clare,52.3838889,-9.0744444,406,5492
Killeen,Clare,52.9625,-9.0644444,170,2500
Killimer,Clare,52.6108333,-9.3938889,0,2594
Killinaboy,Clare,52.9719444,-9.0813889,187,2500
Kilmaley,Clare,52.8277778,-9.1180556,249,2511
Kilmihil,Clare,52.7213889,-9.3186111,246,2517
Kilmurry,Clare,52.8011111,-9.4541667,111,1863
Kilmurry,Clare,52.7761111,-8.7827778,154,2514
Kilmurry McMahon,Clare,52.6525,-9.2936111,3,2555
Kilnaboy,Clare,52.9719444,-9.0813889,187,2500
Kilnamona,Clare,52.8677778,-9.0805556,249,2510
Kilrush,Clare,52.6397222,-9.4833333,3,2509
Kilshanny,Clare,52.9847222,-9.2941667,187,2438
Kiltrellig,Clare,52.5669444,-9.85,0,662
Kilvoydan,Clare,52.8841667,-8.9102778,347,2507
Knock,Clare,52.6280556,-9.3333333,0,2555
Knockacutteen,Clare,52.9813889,-9.2130556,249,2500
Knockalough,Clare,52.7102778,-9.2605556,164,2517
Knockbrack Upper,Clare,52.7363889,-8.5761111,147,2963
Knockeighra,Clare,52.9619444,-9.1538889,278,2500
Knockfin Cross Roads,Clare,53.0291667,-9.3647222,219,2033
Knocknahila Bridge,Clare,52.7836111,-9.3975,203,2508
Knocknamucky,Clare,52.9055556,-8.9097222,291,2507
Labasheeda,Clare,52.6233333,-9.2469444,0,3925
Labbasheeda,Clare,52.6233333,-9.2469444,0,3925
Lahinch,Clare,52.9366667,-9.3452778,180,2113
Lannaght,Clare,53.0130556,-8.7163889,249,2725
Latoon Bridge,Clare,52.795,-8.9216667,13,2511
Lavally,Clare,52.7316667,-9.0769444,108,2517
Leaba Shioda,Clare,52.6233333,-9.2469444,0,3925
Leaba Shíoda,Clare,52.6233333,-9.2469444,0,3925
Leana,Clare,52.9888889,-9.0822222,259,2500
Lecarrow,Clare,52.9208333,-8.6244444,236,2503
Lehinch,Clare,52.9366667,-9.3452778,180,2113
Lios Ceannuir,Clare,52.9416667,-9.3858333,0,1577
Lios Ceannúir,Clare,52.9416667,-9.3858333,0,1577
Lios Duin Bhearna,Clare,53.0327778,-9.2883333,252,2497
Lios Dúin Bhearna,Clare,53.0327778,-9.2883333,252,2497
Liscannor,Clare,52.9416667,-9.3858333,0,1577
Liscanor,Clare,52.9416667,-9.3858333,0,1577
Liscasey,Clare,52.7511111,-9.1930556,383,2514
Liscullaun,Clare,52.8511111,-8.7272222,423,2510
Lisdeen,Clare,52.675,-9.6086111,9,2172
Lisdoonvarna,Clare,53.0327778,-9.2883333,252,2497
Lismorahaun,Clare,53.0747222,-9.2488889,685,2493
Lisroe,Clare,52.7958333,-9.1886111,498,2511
Lower Ballycotteen,Clare,52.9683333,-9.4072222,265,1574
Maghera Cross,Clare,52.8872222,-8.8444444,354,2507
Magowha,Clare,52.8875,-9.0525,223,2507
Mahonburgh Bridge,Clare,52.8163889,-9.05,246,2511
Martrybeg,Clare,52.9230556,-9.1805556,252,2503
Mary Fort,Clare,52.8794444,-8.7172222,354,2507
Mauricemills,Clare,52.8972222,-9.1444444,351,2507
Mauricesmills,Clare,52.8972222,-9.1444444,351,2507
Milltown Malbay,Clare,52.8552778,-9.3983333,216,1989
Miltown Malbay,Clare,52.8552778,-9.3983333,216,1989
Mount Catherine,Clare,52.7077778,-8.5752778,85,4026
Mountrivers Bridge,Clare,52.7363889,-9.4936111,91,2208
Mountshannon,Clare,52.9305556,-8.4258333,180,1972
Moveen,Clare,52.6486111,-9.7008333,209,1835
Moy More,Clare,52.9030556,-9.3430556,367,2117
Moyasta,Clare,52.6713889,-9.5383333,3,2460
Moyglass Bridge,Clare,52.7966667,-9.3658333,246,2511
Mullach,Clare,52.8008333,-9.4119444,177,2408
Mullagh,Clare,52.8008333,-9.4119444,177,2408
Nesters Bridge,Clare,52.8938889,-8.8219444,226,2507
Nesters Bridge,Clare,52.8938889,-8.8219444,226,2507
New Bridge,Clare,52.6538889,-9.235,65,2915
New Quay,Clare,53.1547222,-9.0797222,36,1500
Newhall Cross Roads,Clare,52.7986111,-9.0138889,396,2511
Newmarket on Fergus,Clare,52.76,-8.8955556,16,2514
Newtown,Clare,52.6341667,-9.7294444,180,1380
Noughaval,Clare,53.0188889,-9.1705556,324,2497
Noughaval,Clare,52.8319444,-8.9161111,160,2511
OBriens Bridge,Clare,52.9530556,-9.3491667,36,2113
OBriens Bridge,Clare,52.9530556,-9.3491667,36,2113
OBriensbridge,Clare,52.7547222,-8.4969444,150,2858
OBriensbridge,Clare,52.7547222,-8.4969444,150,2858
OCallaghansmills,Clare,52.8413889,-8.6863889,190,2510
OCallaghansmills,Clare,52.8413889,-8.6863889,190,2510
Ogonnelloe,Clare,52.8880556,-8.4575,288,1638
Oil Mill Bridge,Clare,52.7286111,-8.7675,177,2654
Oldtown,Clare,52.6322222,-9.7516667,252,933
Oughtmama,Clare,53.1188889,-9.0361111,508,2443
Poulagower,Clare,52.9244444,-8.5866667,311,2503
Querrin,Clare,52.6347222,-9.5952778,0,2464
Quilty,Clare,52.8169444,-9.4508333,137,1863
Quin,Clare,52.8186111,-8.8669444,59,2511
Quinn,Clare,52.8186111,-8.8669444,59,2511
Raheen Bridge,Clare,52.8886111,-8.5116667,452,2348
Ravoganagh,Clare,52.7333333,-9.5166667,3,1885
Regalnka Bridge,Clare,52.8941667,-9.2036111,206,2507
Rinecaha,Clare,52.9944444,-8.9438889,173,2522
Rinn na Spainneach,Clare,52.8497222,-9.4380556,0,1261
Rinn na Spáinneach,Clare,52.8497222,-9.4380556,0,1261
Rinnagonnaght,Clare,52.7333333,-9.5166667,3,1885
Rinnamona,Clare,52.9888889,-9.0461111,209,2500
Rinneen,Clare,52.8905556,-9.3891667,219,1609
Roadford,Clare,53.0227778,-9.3683333,170,2033
Ross,Clare,52.5836111,-9.85,3,601
Rossanure,Clare,52.9111111,-8.6183333,219,2507
Ruan,Clare,52.9305556,-8.9897222,124,2503
Sallybank,Clare,52.7675,-8.6244444,377,2514
Scariff,Clare,52.8988889,-8.5091667,272,2348
Scarriff,Clare,52.8988889,-8.5091667,272,2348
Scotts Bridge,Clare,52.7975,-8.5786111,229,2512
Scotts Bridge,Clare,52.7975,-8.5786111,229,2512
Shannon,Clare,52.7038889,-8.8641667,0,3652
Shanvally,Clare,53.1258333,-9.0455556,341,1500
Shanweela,Clare,52.915,-9.1897222,255,2507
Sionainn,Clare,52.7038889,-8.8641667,0,3652
Sixmilebridge,Clare,52.7413889,-8.7741667,141,2654
Skaghard,Clare,53.0291667,-8.965,213,2501
Sorrel Island Bridge,Clare,52.7647222,-9.2375,433,2514
Spanish Point,Clare,52.8497222,-9.4380556,0,1261
Spectacle Bridge,Clare,53.0280556,-9.3044444,242,2437
Sraid na Cathrach,Clare,52.8552778,-9.3983333,216,1989
Sráid na Cathrach,Clare,52.8552778,-9.3983333,216,1989
Stranagalloon,Clare,52.9594444,-8.9130556,157,2591
Strand,Clare,52.3955556,-9.1105556,498,5490
Tallycreen Bridge,Clare,52.6736111,-9.3094444,65,2520
The Hand Cross Roads,Clare,52.8205556,-9.2638889,498,2511
Tomgraney,Clare,52.8972222,-8.5386111,246,2348
Tooclae,Clare,53.0130556,-9.3555556,213,2033
Toomaghera,Clare,53.0472222,-9.2419444,495,2493
Tromra,Clare,52.8066667,-9.4655556,55,1020
Trusklieve,Clare,52.6277778,-9.7644444,226,933
Tuaim Greine,Clare,52.8972222,-8.5386111,246,2348
Tuaim Gréine,Clare,52.8972222,-8.5386111,246,2348
Tuamgraney,Clare,52.8972222,-8.5386111,246,2348
Tulla,Clare,53.0711111,-8.9411111,177,2663
Tulla,Clare,52.8647222,-8.7605556,498,2510
Tullagh,Clare,52.975,-9.2083333,239,2500
Tullig,Clare,52.6147222,-9.7761111,147,1259
Tullycreen,Clare,52.6838889,-9.3558333,91,2520
Tullycreen Lower,Clare,52.6683333,-9.3272222,55,2520
Tullycreen Upper,Clare,52.6838889,-9.3558333,91,2520
Tullycrine,Clare,52.6838889,-9.3558333,91,2520
Tullygarvan,Clare,52.9152778,-9.3227778,249,2431
Turlough,Clare,53.0922222,-9.0652778,216,2304
Tyredagh Upper,Clare,52.9091667,-8.79,269,2507
Uggoon,Clare,52.9161111,-8.7383333,449,2507
Upper Ballycotteen,Clare,52.9791667,-9.4130556,498,1574
Walterstown,Clare,52.9338889,-8.8861111,213,2526
Whitegate,Clare,52.9491667,-8.3713889,183,1554
Whites Bridge,Clare,52.8875,-9.3088889,436,2431
Whites Bridge,Clare,52.8875,-9.3088889,436,2431
Willbrook,Clare,52.9377778,-9.1280556,380,2503
Woodfield Bridge,Clare,52.8066667,-8.6975,206,2511
Wyndhams Bridge,Clare,52.8461111,-8.7555556,498,2510
Wyndhams Bridge,Clare,52.8461111,-8.7555556,498,2510
Abbotstown,Dublin,53.3930556,-6.355,111,97564
An Caislean Nua,Dublin,53.3011111,-6.5022222,351,50261
An Caisleán Nua,Dublin,53.3011111,-6.5022222,351,50261
An Ros,Dublin,53.5247222,-6.1097222,3,50537
Annfield,Dublin,53.3744444,-6.4055556,114,101055
Artane,Dublin,53.3825,-6.2025,3,84645
Ashtown,Dublin,53.3752778,-6.3305556,42,101763
Dublin,Dublin,53.3330556,-6.2488889,29,88981
Baile Átha Cliath,Dublin,53.3330556,-6.2488889,29,88981
Baile Bhlainseir,Dublin,53.3880556,-6.3755556,72,84894
Baile Bhlainséir,Dublin,53.3880556,-6.3755556,72,84894
Baile Brigin,Dublin,53.6127778,-6.1819444,0,60651
Baile Brigín,Dublin,53.6127778,-6.1819444,0,60651
Baile Duill,Dublin,53.3997222,-6.1258333,3,59010
Baile Dúill,Dublin,53.3997222,-6.1258333,3,59010
Balbriggan,Dublin,53.6127778,-6.1819444,0,60651
Balcunnin,Dublin,53.5633333,-6.1472222,101,73121
Baldongan,Dublin,53.5572222,-6.1569444,147,73121
Baldoyle,Dublin,53.3997222,-6.1258333,3,59010
Baldwinstown,Dublin,53.5647222,-6.3552778,265,65304
Balgriffin,Dublin,53.4094444,-6.1741667,3,84645
Ballinteer,Dublin,53.2827778,-6.2708333,298,100584
Ballisk,Dublin,53.49,-6.1488889,3,71300
Ballough,Dublin,53.5352778,-6.1963889,118,95565
Ballsbridge,Dublin,53.3302778,-6.2305556,9,88981
Ballyboden,Dublin,53.2805556,-6.3163889,337,100201
Ballyboghil,Dublin,53.5252778,-6.2625,91,101751
Ballyboghill,Dublin,53.5252778,-6.2625,91,101751
Ballyboughal,Dublin,53.5252778,-6.2625,91,101751
Ballybrack,Dublin,53.2544444,-6.1477778,88,64370
Ballycorden,Dublin,53.4097222,-6.3680556,249,97564
Ballycorus,Dublin,53.2322222,-6.1672222,479,73557
Ballyfermot,Dublin,53.3452778,-6.3588889,108,102936
Ballyman,Dublin,53.4144444,-6.2652778,72,102013
Ballymount,Dublin,53.3136111,-6.3638889,249,103037
Ballymun,Dublin,53.3963889,-6.2827778,62,102013
Balrickard,Dublin,53.5722222,-6.2416667,259,98391
Balrothery,Dublin,53.5955556,-6.2163889,183,68993
Balscaddan,Dublin,53.6230556,-6.2308333,45,68993
Beaumont,Dublin,53.3913889,-6.2405556,19,97588
Belcamp,Dublin,53.4108333,-6.2022222,16,84645
Beldaragh,Dublin,53.5697222,-6.2508333,252,88714
Belgard,Dublin,53.3030556,-6.3966667,278,103037
Binn Eadair,Dublin,53.3877778,-6.0652778,3,13608
Binn Éadair,Dublin,53.3877778,-6.0652778,3,13608
Blachardstown,Dublin,53.3880556,-6.3755556,72,84894
Blackrock,Dublin,53.3030556,-6.1830556,26,67263
Blanchardstown,Dublin,53.3880556,-6.3755556,72,84894
Booterstown,Dublin,53.31,-6.2155556,59,88981
Brittas,Dublin,53.2369444,-6.4522222,971,55529
Cabinteely,Dublin,53.2594444,-6.1447222,39,64370
Cabra,Dublin,53.3669444,-6.2944444,16,102936
Cappoge,Dublin,53.4008333,-6.3291667,167,101763
Castleknock,Dublin,53.3786111,-6.3922222,91,84894
Chapelizod,Dublin,53.3488889,-6.3466667,52,102936
Chapelmidway,Dublin,53.4575,-6.3102778,157,95212
Cill Inion Leinin,Dublin,53.2522222,-6.1125,0,35294
Cill Iníon Léinín,Dublin,53.2522222,-6.1125,0,35294
Cloghran,Dublin,53.4338889,-6.2263889,42,101370
Clonard,Dublin,53.6058333,-6.2275,98,68993
Clondalkin,Dublin,53.3244444,-6.3972222,229,103037
Clonsilla,Dublin,53.3833333,-6.4166667,131,60153
Clontarf,Dublin,53.3591667,-6.2161111,3,89847
Cluain Dolcain,Dublin,53.3244444,-6.3972222,229,103037
Cluain Dolcáin,Dublin,53.3244444,-6.3972222,229,103037
Cnoc Mhuirfean,Dublin,53.295,-6.2372222,242,88981
Concrete,Dublin,53.31,-6.2472222,144,88981
Coolock,Dublin,53.3883333,-6.1938889,6,84645
Corballis,Dublin,53.4775,-6.1430556,3,71300
Coultry,Dublin,53.4222222,-6.2672222,85,102671
Cross of the Cage,Dublin,53.5802778,-6.1877778,242,92264
Crumlin,Dublin,53.3241667,-6.3286111,170,103037
Cunard,Dublin,53.2302778,-6.3405556,1007,79843
Dalkey,Dublin,53.2783333,-6.1002778,0,35294
Dallyhaysy,Dublin,53.6008333,-6.2313889,154,68993
Damastown,Dublin,53.5558333,-6.3047222,295,75887
Dardistown,Dublin,53.4166667,-6.2383333,52,101370
Deans Grange,Dublin,53.2816667,-6.1677778,75,84907
Deilginis,Dublin,53.2783333,-6.1002778,0,35294
Dermotstown,Dublin,53.59,-6.2241667,190,68993
Dollymount,Dublin,53.3644444,-6.1691667,0,65467
Dolphins Barn,Dublin,53.3341667,-6.3213889,127,102936
Dolphins Barn,Dublin,53.3341667,-6.3213889,127,102936
Domhnach Bat,Dublin,53.4872222,-6.1519444,3,71300
Donabate,Dublin,53.4872222,-6.1519444,3,71300
Donnybrook,Dublin,53.3211111,-6.2152778,3,88981
Drisnoge,Dublin,53.51,-6.2938889,121,93318
Drumcondra,Dublin,53.3711111,-6.2508333,6,101267
Drumleck,Dublin,53.3636111,-6.0827778,0,11047
Dublin,Dublin,53.3330556,-6.2488889,29,88981
Dun Laoghaire,Dublin,53.2925,-6.1286111,3,40100
Dún Laoghaire,Dublin,53.2925,-6.1286111,3,40100
Dundrum,Dublin,53.2922222,-6.2669444,246,102164
Dunleary,Dublin,53.2925,-6.1286111,3,40100
Esker,Dublin,53.3505556,-6.4380556,190,88470
Fannings Walls,Dublin,53.5597222,-6.3344444,282,65304
Fannings Walls,Dublin,53.5597222,-6.3344444,282,65304
Feltrim,Dublin,53.4352778,-6.1775,3,94582
Firhouse,Dublin,53.2816667,-6.3391667,351,100549
Forrest Great,Dublin,53.4419444,-6.2630556,98,102671
Fort Bridge,Dublin,53.2597222,-6.3688889,587,100549
Fox and Geese,Dublin,53.3236111,-6.3558333,203,103037
Foxrock,Dublin,53.2666667,-6.1741667,177,84907
Galloping Green,Dublin,53.2755556,-6.1997222,246,84907
Garristown,Dublin,53.5661111,-6.3855556,249,45324
Glasnevin,Dublin,53.3802778,-6.2641667,19,102013
Glencullen,Dublin,53.2216667,-6.2136111,725,71967
Golden Ball,Dublin,53.24,-6.2216667,849,71967
Gracedieu,Dublin,53.5127778,-6.2452778,49,101384
Greatcommon,Dublin,53.5391667,-6.1613889,101,83541
Harolds Cross,Dublin,53.3263889,-6.2947222,124,103037
Harolds Cross,Dublin,53.3263889,-6.2947222,124,103037
Hartstown,Dublin,53.3930556,-6.4269444,154,60153
Howth,Dublin,53.3877778,-6.0652778,3,13608
Hynestown,Dublin,53.5772222,-6.2836111,488,88714
Inchicore,Dublin,53.3377778,-6.3461111,101,102936
Irishtown,Dublin,53.3380556,-6.215,0,89847
Islandbridge,Dublin,53.3483333,-6.3091667,29,102936
Kilbarrack,Dublin,53.3913889,-6.1458333,0,59010
Kill of the Grange,Dublin,53.2791667,-6.1541667,49,64370
Killeek,Dublin,53.4547222,-6.2780556,111,102671
Killiney,Dublin,53.2522222,-6.1125,0,35294
Killosseny,Dublin,53.4886111,-6.3063889,141,90016
Kilmainham,Dublin,53.3333333,-6.2833333,75,102164
Kilmore,Dublin,53.3963889,-6.2280556,26,97588
Kilstillaghan,Dublin,53.4733333,-6.3186111,160,90016
Kiltiernan,Dublin,53.2319444,-6.1911111,492,73557
Kingstown,Dublin,53.2925,-6.1286111,3,40100
Kingstown Cross Roads,Dublin,53.4380556,-6.2955556,131,95212
Kingswood,Dublin,53.3019444,-6.4177778,291,100745
Kinsaley,Dublin,53.4247222,-6.1758333,3,94582
Kitchenstown,Dublin,53.5825,-6.2444444,246,98391
Leamhcan,Dublin,53.3591667,-6.4388889,157,88470
Leamhcán,Dublin,53.3591667,-6.4388889,157,88470
Leopardstown,Dublin,53.2683333,-6.1997222,282,84907
Lidoville,Dublin,53.5,-6.1166667,3,38105
Lispapple Cross Roads,Dublin,53.4838889,-6.2852778,108,102510
Little Bray,Dublin,53.2044444,-6.1208333,32,17734
Loughlinstown,Dublin,53.2438889,-6.1330556,49,61512
Loughshinny,Dublin,53.5491667,-6.0827778,0,17155
Lucan,Dublin,53.3591667,-6.4388889,157,88470
Lusca,Dublin,53.5280556,-6.1691667,49,95565
Lusk,Dublin,53.5280556,-6.1691667,49,95565
Luttrells Cross Roads,Dublin,53.4486111,-6.2947222,134,95212
Luttrells Cross Roads,Dublin,53.4486111,-6.2947222,134,95212
Luttrellstown,Dublin,53.3738889,-6.4322222,124,88470
Malahide,Dublin,53.4508333,-6.1544444,3,68332
Marino,Dublin,53.3666667,-6.2333333,3,89847
Marlfield,Dublin,53.2702778,-6.3872222,531,96720
Merrion,Dublin,53.295,-6.2372222,242,88981
Milltown,Dublin,53.3208333,-6.4594444,259,84178
Milltown,Dublin,53.31,-6.2472222,144,88981
Monkstown,Dublin,53.2888889,-6.1452778,3,64370
Mount Merrion,Dublin,53.295,-6.2372222,242,88981
Mountjoy,Dublin,53.35,-6.25,3,89847
Mountjoy Ward,Dublin,53.35,-6.25,3,89847
Mulhurddart,Dublin,53.4036111,-6.4011111,118,84894
Mullach Ide,Dublin,53.4508333,-6.1544444,3,68332
Mullach Íde,Dublin,53.4508333,-6.1544444,3,68332
Old Connaught,Dublin,53.2083333,-6.1344444,95,29109
Oldbawn,Dublin,53.2755556,-6.3675,387,100549
Oldtown,Dublin,53.5252778,-6.3155556,167,93318
Palmerston,Dublin,53.3627778,-6.3655556,59,102936
Peamount,Dublin,53.3197222,-6.4802778,269,84178
Phibblestown,Dublin,53.4005556,-6.4344444,183,60153
Phibsborough,Dublin,53.3641667,-6.2780556,9,101267
Port Mearnog,Dublin,53.4230556,-6.1375,0,68332
Port Mearnóg,Dublin,53.4230556,-6.1375,0,68332
Portmarnock,Dublin,53.4230556,-6.1375,0,68332
Portraine,Dublin,53.4966667,-6.1111111,0,38105
Raheny,Dublin,53.3825,-6.1744444,3,84645
Ranelagh,Dublin,53.3266667,-6.2447222,49,88981
Rath Cuil,Dublin,53.2827778,-6.4727778,485,76674
Ráth Cúil,Dublin,53.2827778,-6.4727778,485,76674
Rathcoole,Dublin,53.2827778,-6.4727778,485,76674
Rathfarnham,Dublin,53.3005556,-6.2827778,213,102164
Rathgar,Dublin,53.3122222,-6.2683333,160,102164
Rathmines,Dublin,53.3202778,-6.2633333,118,102164
Redgap,Dublin,53.2683333,-6.4752778,882,76674
Richardstown,Dublin,53.5158333,-6.2361111,45,101384
Ringsend,Dublin,53.3419444,-6.2263889,3,89847
Riversdale,Dublin,53.3172222,-6.5075,265,50261
Rockbrook,Dublin,53.2611111,-6.3002778,800,100201
Rush,Dublin,53.5247222,-6.1097222,3,50537
Saggart,Dublin,53.2802778,-6.4444444,511,89397
Saint Doolaghs,Dublin,53.4163889,-6.1805556,9,84645
Saint Margarets,Dublin,53.4316667,-6.3002778,144,95212
Saint Margarets,Dublin,53.4316667,-6.3002778,144,95212
Saint Marnocks,Dublin,53.4308333,-6.1275,0,68332
Sallynoggin,Dublin,53.2736111,-6.1425,19,64370
Sandyford,Dublin,53.2697222,-6.2241667,436,96324
Sandymount,Dublin,53.335,-6.2113889,0,89847
Santry,Dublin,53.3986111,-6.2597222,39,102013
Sea Mount,Dublin,53.4427778,-6.14,3,68332
Seafield,Dublin,53.4747222,-6.1763889,3,93900
Shankill,Dublin,53.2261111,-6.1244444,6,36555
Skephubble,Dublin,53.4516667,-6.3077778,160,95212
Skerries,Dublin,53.5827778,-6.1083333,0,43841
Slade,Dublin,53.2666667,-6.4466667,846,89397
Sord,Dublin,53.4597222,-6.2180556,13,100269
Stepaside,Dublin,53.2525,-6.2136111,554,96324
Stillorgan,Dublin,53.2875,-6.2191667,242,96324
Summerton,Dublin,53.3663889,-6.4075,104,101055
Sutton,Dublin,53.3905556,-6.1216667,0,32157
Swords,Dublin,53.4597222,-6.2180556,13,100269
Tallaght,Dublin,53.2877778,-6.3411111,298,100549
Tamhlacht,Dublin,53.2877778,-6.3411111,298,100549
Teach Sagard,Dublin,53.2802778,-6.4444444,511,89397
Templeogue,Dublin,53.2952778,-6.3088889,272,103037
The Five Roads,Dublin,53.5541667,-6.2091667,236,98391
Tobertown,Dublin,53.6169444,-6.2538889,101,56398
Walkinstown,Dublin,53.3213889,-6.3530556,193,103037
Ward,Dublin,53.4330556,-6.3333333,216,95212
Whitechurch,Dublin,53.2716667,-6.2780556,387,100584
Whitestown,Dublin,53.3986111,-6.4005556,118,84894
Willbrook,Dublin,53.2936111,-6.3119444,272,103037
Williamsville,Dublin,53.4127778,-6.3052778,147,101763
Windy Arbour,Dublin,53.3055556,-6.2580556,150,102164
Woodlands,Dublin,53.4108333,-6.2158333,29,97588
Woodtown,Dublin,53.2658333,-6.3163889,554,100201
Abbeydorney,Kerry,52.35,-9.6833333,239,2412
Abhainn an Scail,Kerry,52.1516667,-10.0566667,219,1558
Abhainn an Scáil,Kerry,52.1516667,-10.0566667,219,1558
Aghacurreen,Kerry,52.0897222,-9.5652778,301,2426
Aghatubrid,Kerry,51.8811111,-10.1963889,173,2320
Aghatubrid Bridge,Kerry,51.8811111,-10.1963889,173,2320
Aghnagar Bridge,Kerry,51.8994444,-10.2486111,45,2137
Aghnanus Bridge,Kerry,51.9538889,-9.3908333,479,2436
Aglish,Kerry,52.1338889,-10.1436111,177,1854
Ahafona,Kerry,52.5044444,-9.6586111,190,1965
Ahavoher Bridge,Kerry,52.4772222,-9.3711111,249,3035
Ahimma,Kerry,52.4902778,-9.6461111,173,2188
An Baile Dubh,Kerry,52.4513889,-9.6625,209,2363
An Caladh,Kerry,51.8861111,-10.3616667,380,1417
An Coirean,Kerry,51.8333333,-10.1666667,45,1293
An Coireán,Kerry,51.8333333,-10.1666667,45,1293
An Croman,Kerry,52.1161111,-9.9027778,3,1524
An Cromán,Kerry,52.1161111,-9.9027778,3,1524
An Daingean,Kerry,52.1408333,-10.2688889,124,1773
An Fearann Fuar,Kerry,52.1666667,-9.55,278,2422
An Fheothanach,Kerry,52.2161111,-10.3555556,177,1007
An Fhianait,Kerry,52.2808333,-9.8675,3,1077
An Laithreach,Kerry,51.75,-9.7666667,337,3273
An Láithreach,Kerry,51.75,-9.7666667,337,3273
An Mhuirioch,Kerry,52.1869444,-10.3638889,59,1756
An Rath Mhor,Kerry,52.0833333,-9.2166667,498,3215
An Ráth Mhór,Kerry,52.0833333,-9.2166667,498,3215
An Snaidhm,Kerry,51.8333333,-9.9,82,1443
An Tochar,Kerry,52.4133333,-9.7319444,383,2380
An Tóchar,Kerry,52.4133333,-9.7319444,383,2380
An tSnaidhm,Kerry,51.8333333,-9.9,82,1443
Anascaul,Kerry,52.1516667,-10.0566667,219,1558
Annagh,Kerry,52.088889,-9.3261111,488,2426
Ard Fhearta,Kerry,52.3333333,-9.7833333,249,2140
Ardamore,Kerry,52.2030556,-10.3658333,72,1756
Ardcanaght,Kerry,52.1638889,-9.7388889,180,2423
Ardcost,Kerry,51.9044444,-10.2780556,134,1938
Ardea,Kerry,51.8144444,-9.7577778,3,1708
Ardea Bridge,Kerry,51.8266667,-9.7425,3,1961
Ardfert,Kerry,52.3333333,-9.7833333,249,2140
Ardmore,Kerry,51.8069444,-9.9905556,242,1779
Ardrahan,Kerry,52.3536111,-9.7561111,206,2401
Ardywanig,Kerry,52.1477778,-9.6627778,275,2423
Astee,Kerry,52.5508333,-9.5605556,213,2422
Atadav Bridge,Kerry,51.7544444,-9.7763889,226,2112
Aughill,Kerry,52.1616667,-9.8772222,0,1495
Aughils,Kerry,52.1616667,-9.8772222,0,1495
Abbevill,Cork,51.9666667,-8.5833333,328,5205
Abbeville,Cork,51.9666667,-8.5833333,328,5205
Abbey Mount,Cork,51.6008333,-9.1377778,328,5077
Abbeymahon,Cork,51.6330556,-8.7752778,3,5097
Adrigole,Cork,51.7008333,-9.725,147,3033
Adrivale,Cork,52.0344444,-9.1105556,1017,5061
Aghabulloge,Cork,51.9333333,-8.8,331,5209
Aghabullogue,Cork,51.9333333,-8.8,331,5209
Aghacunna,Cork,51.8744444,-9.0919444,508,5219
Aghada,Cork,51.8391667,-8.2122222,22,3995
Aghaville,Cork,51.6588889,-9.3433333,259,5243
Aghaville Cross Roads,Cork,51.6588889,-9.3433333,259,5243
Aghavrin Cross Roads,Cork,51.9322222,-8.8113889,341,5209
Aghern,Cork,52.0825,-8.1522222,255,5192
Aghnamarroge Cross Roads,Cork,51.8363889,-8.7483333,318,5219
Aglish,Cork,51.8869444,-8.7641667,249,5215
Agraglin Bridge,Cork,52.1666667,-8.2197222,190,5178
Ahadallane,Cork,52.0222222,-8.6997222,682,5201
Ahadallane Cross Roads,Cork,52.03,-8.6925,675,5201
Ahakista,Cork,51.6055556,-9.6358333,55,2505
Ahaphuca Bridge,Cork,52.3005556,-8.3822222,498,5366
Ahaunduff Cross Roads,Cork,51.8513889,-8.7941667,262,5219
Aherla,Cork,51.8572222,-8.7388889,249,5219
Ahqunboy,Cork,51.6936111,-8.89,252,5237
Aldworths Bridge,Cork,52.2177778,-9.0213889,524,5174
Aldworths Bridge,Cork,52.2177778,-9.0213889,524,5174
Allens Bridge,Cork,52.1875,-8.9661111,449,5178
Allens Bridge,Cork,52.1875,-8.9661111,449,5178
Allihies,Cork,51.6333333,-10.0333333,439,3226
An Baile Atha hUlla,Cork,52.1494444,-8.4005556,160,5184
An Baile Átha hÚlla,Cork,52.1494444,-8.4005556,160,5184
An Baile Nua,Cork,52.0591667,-8.0986111,341,5187
An Bhlarna,Cork,51.9333333,-8.5666667,223,5209
An Cobh,Cork,51.8572222,-8.2991667,154,3976
An Cóbh,Cork,51.8572222,-8.2991667,154,3976
An Cruachan,Cork,51.4666667,-9.7166667,0,2168
An Cruachán,Cork,51.4666667,-9.7166667,0,2168
An Geata Ban,Cork,51.8305556,-8.2297222,3,2484
An Geata Bán,Cork,51.8305556,-8.2297222,3,2484
An Gleann Garbh,Cork,51.75,-9.55,0,3302
An Leim,Cork,51.5925,-9.13,249,5077
An Léim,Cork,51.5925,-9.13,249,5077
An Pasaiste,Cork,51.8738889,-8.3444444,16,4707
An Pasáiste,Cork,51.8738889,-8.3444444,16,4707
An Sciobairin,Cork,51.55,-9.2666667,347,5233
An Scoil,Cork,51.5333333,-9.5333333,144,2816
An Seanbhaile Mor,Cork,52.2202778,-8.5013889,226,5188
An Seanbhaile Mór,Cork,52.2202778,-8.5013889,226,5188
Annahatn,Cork,51.8777778,-9,370,5215
Annes Bridge,Cork,52.2094444,-9.0261111,498,5174
Annes Bridge,Cork,52.2094444,-9.0261111,498,5174
Annistown,Cork,51.9430556,-8.0402778,216,5209
Araglin,Cork,52.2083333,-8.1161111,429,4498
Ardcahan Bridge,Cork,51.7605556,-9.0969444,410,5229
Ardeen,Cork,51.9366667,-9.0875,495,5130
Ardfallen,Cork,51.8830556,-8.4477778,118,5215
Ardfield,Cork,51.5666667,-8.9144444,39,2492
Ardgehane,Cork,51.6033333,-8.8297222,0,3271
Ardgroom,Cork,51.7405556,-9.8955556,196,3583
Ardnacrushy,Cork,51.9263889,-9.091667,423,5130
Ardrah,Cork,51.7433333,-9.3483333,495,5233
Ardskeagh Cross Roads,Cork,52.3338889,-8.6280556,505,5339
Argideen Bridge,Cork,51.6611111,-8.995,252,5243
Ath an Choiste,Cork,51.9,-8.7833333,236,5215
Áth an Chóiste,Cork,51.9,-8.7833333,236,5215
Ath an Mhuilinn,Cork,52.3333333,-8.85,433,5208
Áth an Mhuilinn,Cork,52.3333333,-8.85,433,5208
Ath Trasna,Cork,52.2166667,-9,472,5174
Áth Trasna,Cork,52.2166667,-9,472,5174
Athabatteen,Cork,51.9666667,-8.7833333,498,5205
Athnaleenta,Cork,52.0716667,-8.64,416,5192
Athnanangle Bridge,Cork,51.9583333,-8.7819444,469,5209
Aughabrack,Cork,51.6755556,-9.99,285,3380
Aughaville,Cork,51.6588889,-9.3433333,259,5243
Avoncore,Cork,51.9219444,-8.1825,141,5209
Avondhu,Cork,52.1316667,-8.6283333,255,5184
Baile an Chaisleain,Cork,51.5263889,-9.1833333,0,3061
Baile an Chaisleáin,Cork,51.5263889,-9.1833333,0,3061
Baile an Chollaigh,Cork,51.8833333,-8.5833333,219,5215
Baile an Teampail,Cork,52.2666667,-8.7333333,479,5170
Baile Bhuirne,Cork,51.9333333,-9.1666667,508,4830
Baile Chaisleain an Roistigh,Cork,52.1733333,-8.4625,209,5178
Baile Chaisleáin an Róistigh,Cork,52.1733333,-8.4625,209,5178
Baile Chaisleain Bhearra,Cork,51.65,-9.9166667,0,3629
Baile Chaisleáin Bhéarra,Cork,51.65,-9.9166667,0,3629
Baile Choitin,Cork,51.8333333,-8.0161111,0,1612
Baile Choitín,Cork,51.8333333,-8.0161111,0,1612
Baile Cloch,Cork,52.1666667,-8.7333333,337,5178
Baile Deasumhan,Cork,52.1833333,-9.2333333,793,4275
Baile Mhic Ire,Cork,51.9333333,-9.1333333,475,4973
Baile Mhic Íre,Cork,51.9333333,-9.1333333,475,4973
Baile Mhisteala,Cork,52.2658333,-8.2680556,456,5252
Baile Mhistéala,Cork,52.2658333,-8.2680556,456,5252
Baile na Martra,Cork,51.9102778,-8.0538889,147,5125
Baile Nua Sheandroma,Cork,52.35,-8.7666667,390,5249
Ballaghaderg Bridge,Cork,52.2858333,-8.2811111,357,5252
Ballagheloghane Cross Roads,Cork,51.7658333,-8.8188889,288,5229
Ballaghhammer Bridge,Cork,51.6594444,-8.9294444,249,5204
Ballard,Cork,52.2158333,-8.1886111,524,4894
Balliarea Cross,Cork,51.8333333,-8.4119444,108,5122
Ballinacurra,Cork,51.8961111,-8.165,196,5158
Ballinadee,Cork,51.7127778,-8.6344444,236,5233
Ballinascarthy,Cork,51.6722222,-8.9052778,242,5237
Ballinascarty,Cork,51.6722222,-8.9052778,242,5237
Ballinaspig,Cork,51.8772222,-8.5352778,223,5215
Ballinclashet,Cork,51.7183333,-8.4516667,29,4203
Ballincollig,Cork,51.8833333,-8.5833333,219,5215
Ballincourlea,Cork,51.8822222,-8.0205556,42,4749
Ballincurrig,Cork,51.9872222,-8.2277778,360,5205
Ballindangan,Cork,52.2344444,-8.3316667,239,5175
Ballindeenisk Cross Roads,Cork,51.9936111,-8.3947222,479,5205
Ballindillanig,Cork,52.2761111,-8.7175,436,5170
Ballineadig,Cork,51.8855556,-8.7097222,311,5215
Ballineen,Cork,51.7369444,-8.9569444,242,5233
Ballingarry,Cork,51.7455556,-8.4397222,180,4203
Ballingeary,Cork,51.85,-9.2333333,475,5192
Ballinglanna,Cork,51.9161111,-8.3866667,183,5196
Ballinhassig,Cork,51.8141667,-8.5369444,154,5223
Ballinla,Cork,52.2922222,-8.8555556,472,5208
Ballinlegane Cross Roads,Cork,51.9872222,-8.3622222,403,5205
Ballinluska,Cork,51.7897222,-8.2941667,0,2760
Ballinoroher,Cork,51.6466667,-8.8347222,246,4845
Ballinrostig,Cork,51.8208333,-8.1844444,32,3228
Ballinspittle,Cork,51.6677778,-8.6002778,213,4746
Ballintemple,Cork,51.8930556,-8.4352778,3,5215
Ballintlea Bridge,Cork,52.2672222,-8.51,390,5276
Ballintotes,Cork,51.9075,-8.0991667,226,5215
Ballinure,Cork,51.8888889,-8.4041667,3,5196
Ballinvinny North,Cork,51.9805556,-8.3758333,400,5205
Ballinvinny South,Cork,51.9633333,-8.3816667,249,5205
Ballinvronig,Cork,51.6825,-8.6488889,423,4739
Ballinvuskig,Cork,52.1019444,-8.6019444,541,5188
Ballinwillin,Cork,52.0375,-8.2569444,462,5201
Ballyandreen,Cork,51.8216667,-8.0522222,3,2438
Ballyard Cross Roads,Cork,52.0327778,-8.1986111,511,5201
Ballybrack,Cork,51.4991667,-9.6130556,0,1453
Ballybraher,Cork,51.8352778,-8.0361111,3,3361
Ballybranagan,Cork,51.8116667,-8.1466667,3,3264
Ballybrowney Mountain,Cork,52.0788889,-8.3405556,393,5192
Ballyclogh,Cork,52.1666667,-8.7333333,337,5178
Ballycottin,Cork,51.8333333,-8.0161111,0,1612
Ballycotton,Cork,51.8333333,-8.0161111,0,1612
Ballycroneen,Cork,51.8083333,-8.1083333,0,2974
Ballydague,Cork,52.1291667,-8.4516667,528,5184
Ballydehob,Cork,51.55,-9.4666667,3,4191
Ballydesmond,Cork,52.1833333,-9.2333333,793,4275
Ballydivin,Cork,51.5008333,-9.7086111,0,2768
Ballydonaghy Cross Roads,Cork,51.7444444,-8.6102778,249,5227
Ballydonegan,Cork,51.6355556,-10.055,196,2316
Ballydoyle,Cork,52.1947222,-8.4502778,249,5178
Ballyduvane,Cork,51.6169444,-8.9402778,249,4814
Ballyfeard,Cork,51.7552778,-8.4375,219,5202
Ballyfinnane Bridge,Cork,51.9172222,-9.2486111,908,4630
Ballyfoyle,Cork,51.7416667,-8.3644444,249,2911
Ballygarvan,Cork,51.8275,-8.4638889,127,5223
Ballygriffin,Cork,52.1555556,-8.5125,193,5184
Ballyhander,Cork,51.6908333,-8.6016667,255,4746
Ballyhooly,Cork,52.1494444,-8.4005556,160,5184
Ballyhoura,Cork,52.2752778,-8.6477778,452,5176
Ballykenly Bridge,Cork,52.2119444,-8.3519444,206,5174
Ballylangley,Cork,51.7586111,-8.7094444,219,5229
Ballyleary,Cork,51.8630556,-8.3194444,183,3976
Ballylinchy,Cork,51.4833333,-9.35,147,2413
Ballymacandrick,Cork,51.8305556,-8.1433333,118,3264
Ballymacask,Cork,51.9591667,-7.8969444,242,4785
Ballymacoda,Cork,51.89,-7.9325,3,3608
Ballymacredmond,Cork,51.5777778,-8.7494444,0,1459
Ballymacrown,Cork,51.4877778,-9.3480556,242,2413
Ballymacwilliam,Cork,51.6122222,-8.8558333,0,3472
Ballymadog,Cork,51.9211111,-7.9133333,45,4130
Ballymakeera,Cork,51.9333333,-9.1333333,475,4973
Ballymakeery,Cork,51.9333333,-9.1333333,475,4973
Ballymaquirk Bridge,Cork,52.1352778,-8.8755556,344,5184
Ballymareagh,Cork,51.8733333,-7.9483333,0,1602
Ballymartle,Cork,51.7747222,-8.5269444,249,5223
Ballymore,Cork,51.8622222,-8.2544444,0,3493
Ballynacallagh,Cork,51.6061111,-10.175,0,277
Ballynacarriga,Cork,51.7119444,-9.0405556,239,5233
Ballynacole,Cork,51.9461111,-8.1116667,278,5209
Ballynacorra,Cork,51.8961111,-8.165,196,5158
Ballynacrusha Cross Roads,Cork,51.8630556,-8.2977778,213,3976
Ballynacurrig,Cork,51.8961111,-8.165,196,5158
Ballynagaul,Cork,51.9744444,-8.1363889,498,5205
Ballynageragh,Cork,52.2847222,-8.715,426,5170
Ballynagree,Cork,51.9833333,-8.9333333,761,5205
Ballynakilla,Cork,51.6455556,-9.8583333,436,2980
Ballynakilla,Cork,52.0461111,-8.2647222,311,5192
Ballynamaul Cross Roads,Cork,51.7672222,-8.5613889,262,5229
Ballynamought,Cork,51.7763889,-9.3102778,610,5229
Ballynascarty,Cork,51.9338889,-8.0961111,223,5209
Ballynatrideen,Cork,52.3111111,-8.7044444,406,5184
Ballynavar Bridge,Cork,51.6163889,-8.9786111,249,4709
Ballyneen,Cork,51.7369444,-8.9569444,242,5233
Ballynoe,Cork,51.5533333,-8.9122222,0,2492
Ballynoe,Cork,52.2025,-8.8555556,488,5178
Ballynoe,Cork,52.0591667,-8.0986111,341,5187
Ballynora,Cork,51.8630556,-8.58,252,5219
Ballyoughiera,Cork,51.5133333,-9.3055556,150,4349
Ballyre,Cork,51.9952778,-8.0363889,479,5201
Ballyroon,Cork,51.5619444,-9.7813889,0,1701
Ballyshanock,Cork,52.2561111,-8.4716667,331,5283
Ballyshoneen,Cork,51.95,-8.6833333,436,5209
Ballysimon Cross Roads,Cork,52.0802778,-8.7175,639,5192
Ballyvaloore,Cork,51.9983333,-8.6286111,505,5205
Ballyvatta,Cork,51.9769444,-8.3016667,524,5205
Ballyvireen Bridge,Cork,51.5733333,-9.0625,177,3024
Ballyvisteen,Cork,52.2722222,-8.4461111,442,5270
Ballyvodane Bridge,Cork,51.9791667,-8.6875,488,5205
Ballyvodock,Cork,51.8902778,-8.2130556,0,4627
Ballyvorisheen,Cork,52.0230556,-8.49,498,5201
Ballyvourney,Cork,51.9333333,-9.1666667,508,4830
Ballyvoye,Cork,51.4819444,-9.7622222,249,2203
Baltimore,Cork,51.4833333,-9.3666667,190,2413
Bandon,Cork,51.7469444,-8.7425,229,5233
Bannagh Cross Roads,Cork,52.1541667,-8.8463889,282,5184
Banteer,Cork,52.1166667,-8.9,400,5188
Bantigeen Cross Roads,Cork,52.2538889,-8.6069444,314,5199
Bantir,Cork,52.1166667,-8.9,400,5188
Bántir,Cork,52.1166667,-8.9,400,5188
Bantry,Cork,51.6833333,-9.45,367,4582
Bard Inch,Cork,51.9255556,-9.2516667,807,3924
Barleyhill,Cork,52.2411111,-8.9869444,587,5174
Barloge,Cork,51.4955556,-9.315,0,2424
Barna Cross Roads,Cork,51.6313889,-9.3286111,223,5243
Barna Cross Roads,Cork,51.7886111,-8.6408333,249,5229
Barnagowlane,Cork,51.7330556,-9.2913889,810,5233
Barnard Cross Roads,Cork,52.011111,-8.7319444,643,5201
Barnaviddane,Cork,51.9944444,-7.9691667,328,5162
Barnetstown,Cork,51.9916667,-8.3419444,498,5205
Barony Bridge,Cork,51.7613889,-9.525,426,3760
Barrack,Cork,52.0502778,-8.5975,511,5192
Barrack Cross Roads,Cork,52.3047222,-8.8577778,449,5208
Barrahaurin,Cork,52.044444,-8.83,997,5192
Barrakilly,Cork,51.7458333,-9.8636111,488,3431
Barrees,Cork,51.7202778,-9.9169444,603,2975
Barrel Cross Roads,Cork,51.6844444,-8.5727778,249,4229
Barryareigh Cross Roads,Cork,51.6716667,-8.7147222,259,5077
Barrykilla,Cork,51.8441667,-8.1683333,157,4624
Barrys Cross Roads,Cork,52.23,-8.8552778,498,5174
Barrys Cross Roads,Cork,52.23,-8.8552778,498,5174
Bartlemy,Cork,52.0483333,-8.2658333,311,5192
Bauravilla,Cork,51.605,-9.2713889,226,5247
Bawananee,Cork,52.1794444,-9.0805556,570,5178
Bawnmore,Cork,51.9566667,-8.9611111,498,5209
Bawnmore,Cork,51.95,-8.95,498,5209
Bay View,Cork,51.7069444,-9.4302778,75,4582
Beal an da Chab,Cork,51.55,-9.4666667,3,4191
Béal an dá Chab,Cork,51.55,-9.4666667,3,4191
Beal Atha an Ghaorthaidh,Cork,51.85,-9.2333333,475,5192
Béal Átha an Ghaorthaidh,Cork,51.85,-9.2333333,475,5192
Beal Atha an Spideil,Cork,51.6677778,-8.6002778,213,4746
Béal Átha an Spidéil,Cork,51.6677778,-8.6002778,213,4746
Beal Atha Fhinin,Cork,51.7369444,-8.9569444,242,5233
Béal Átha Fhínín,Cork,51.7369444,-8.9569444,242,5233
Bealad Cross Roads,Cork,51.6488889,-8.9913889,249,5243
Bealahareagh Bridge,Cork,51.8238889,-8.4627778,127,5223
Bealnabla,Cork,51.8252778,-8.8597222,429,5223
Bealnablath,Cork,51.8252778,-8.8597222,429,5223
Bealock,Cork,51.8244444,-9.1219444,498,5223
Beanntrai,Cork,51.6833333,-9.45,367,4582
Beanntraí,Cork,51.6833333,-9.45,367,4582
Bedlnamorive,Cork,51.9322222,-8.8572222,446,5209
Beenalaght,Cork,52.0288889,-8.7461111,843,5201
Behagh,Cork,51.7563889,-9.0547222,498,5229
Belgooly,Cork,51.7388889,-8.49,269,4526
Belgrove,Cork,51.8666667,-8.2,226,4624
Belvelly,Cork,51.8830556,-8.3030556,160,4726
Berrings,Cork,51.9369444,-8.6986111,291,5209
Bishops Village,Cork,51.6402778,-9.2958333,223,5243
Black Cross Roads,Cork,51.845,-8.7011111,259,5219
Blackpool,Cork,51.9102778,-8.4713889,187,5215
Blackrock,Cork,51.8969444,-8.41,3,5196
Blairs Cove,Cork,51.6127778,-9.5394444,213,4818
Blarney,Cork,51.9333333,-8.5666667,223,5209
Bloomfield Cross Roads,Cork,52.1383333,-8.3966667,147,5184
Bluebell,Cork,52.0536111,-8.2577778,318,5192
Bofickil,Cork,51.7077778,-9.9541667,206,4321
Bohanes Cross Roads,Cork,51.8466667,-9.1080556,442,5219
Bohanes Cross Roads,Cork,51.8466667,-9.1080556,442,5219
Boherbay Cross Roads,Cork,52.2366667,-8.6311111,321,5174
Boherderroye,Cork,52.1683333,-8.2891667,114,5178
Boola,Cork,52.0352778,-8.7322222,820,5201
Boolard,Cork,52.3247222,-8.7652778,498,5168
Bounbawn Cross Roads,Cork,52.1611111,-8.3188889,121,5184
Bowenford Cross Roads,Cork,52.3197222,-8.8513889,439,5208
Boylegrove,Cork,51.8694444,-9.0269444,396,5219
Brawnroe Cross Roads,Cork,52.1716667,-8.3727778,167,5178
Breantra,Cork,51.55,-9.1333333,91,4009
Bréantrá,Cork,51.55,-9.1333333,91,4009
Bredagh Cross Roads,Cork,51.6327778,-9.2305556,209,5243
Bregage Cross Roads,Cork,52.2427778,-8.7033333,423,5174
Brinny,Cork,51.7894444,-8.7038889,226,5229
Britway,Cork,52.0480556,-8.1752778,374,5192
Broadale,Cork,51.8661111,-8.4136111,249,5141
Brooklodge,Cork,51.9341667,-8.3786111,249,5209
Brough Cross Roads,Cork,52.2347222,-8.5844444,275,5174
Brownsmills,Cork,51.7252778,-8.5211111,127,4752
Buck Learys Cross Roads,Cork,51.9630556,-8.4091667,324,5205
Buck Learys Cross Roads,Cork,51.9630556,-8.4091667,324,5205
Buggaeen Cross Roads,Cork,52.0927778,-8.8188889,800,5188
Bun an Tabhairne,Cork,51.7983333,-8.3008333,3,3348
Bun an Tábhairne,Cork,51.7983333,-8.3008333,3,3348
Bunskellig,Cork,51.7244444,-9.8925,488,3583
Butlerstown,Cork,51.5972222,-8.7269444,229,3222
Butlerstown,Cork,51.9505556,-8.3761111,249,5209
Buttevant,Cork,52.2333333,-8.6666667,354,5174
Caher,Cork,51.4686111,-9.81,269,1341
Caher,Cork,51.5713889,-9.7438889,232,2346
Caheraphuca,Cork,51.6194444,-10.0163889,229,2521
Caherdrinny,Cork,52.2191667,-8.2916667,544,5175
Caherkeen,Cork,51.6761111,-10.0327778,223,2190
Caherlag,Cork,51.9144444,-8.3633333,242,5035
Cahermoanteen Bridge,Cork,51.7652778,-9.3552778,308,5212
Cahermore,Cork,51.6086111,-10.0619444,0,2130
Cahermucker,Cork,51.7836111,-9.3222222,492,5229
Cahernaeaha,Cork,51.8805556,-9.2461111,862,5150
Caislean O Liathain,Cork,52.0869444,-8.2788889,226,5188
Caisleán Ó Liatháin,Cork,52.0869444,-8.2788889,226,5188
Callaros Fighter,Cork,51.4863889,-9.7247222,0,2168
Canalough,Cork,51.5988889,-10.0358333,0,2521
Cappaboy Beg,Cork,51.8080556,-9.3308333,925,4938
Cappaghglass,Cork,51.5366667,-9.4605556,0,2271
Cappanoloha,Cork,51.675,-9.4780556,170,3654
Cappeen,Cork,51.8077778,-8.9905556,498,5223
Cappul Bridge,Cork,51.7461111,-9.9008333,144,3583
Carrahaly,Cork,51.8658333,-8.7872222,236,5219
Carraig Thuathail,Cork,51.9083333,-8.2633333,29,4528
Carraig Ui Leighin,Cork,51.8116667,-8.3986111,219,5122
Carraig Uí Leighin,Cork,51.8116667,-8.3986111,219,5122
Carran,Cork,51.7725,-9.4511111,616,4680
Carrig,Cork,51.6058333,-9.3016667,164,5247
Carrigaclodig Cross Roads,Cork,51.9222222,-8.8972222,495,5209
Carrigadrohid,Cork,51.9,-8.85,252,5215
Carrigagrenane Cross Roads,Cork,51.6447222,-9.0655556,472,5243
Carrigagulla Bridge,Cork,51.9952778,-8.8905556,892,5205
Carrigaline,Cork,51.8116667,-8.3986111,219,5122
Carrigaloe,Cork,51.8666667,-8.3333333,91,3976
Carrigane,Cork,52.2847222,-8.2152778,419,5209
Carriganes,Cork,52.1986111,-9.2425,895,4275
Carrigaphooea Bridge,Cork,51.9102778,-9.0227778,344,5215
Carrigbaun Cross Roads,Cork,51.6358333,-9.1780556,413,5243
Carrigdangan,Cork,51.8186111,-9.1052778,498,5223
Carrigdeena,Cork,52.0594444,-8.7144444,764,5192
Carrigdownane,Cork,52.2113889,-8.4152778,249,5175
Carrignavar,Cork,51.9886111,-8.4797222,449,5205
Carrigogna Bridge,Cork,51.9294444,-8.1855556,170,5209
Carrigshane,Cork,51.9077778,-8.1472222,196,5158
Carrigthomas,Cork,51.965,-8.9366667,718,5205
Carrigtohill,Cork,51.9083333,-8.2633333,29,4528
Carrigtwohill,Cork,51.9083333,-8.2633333,29,4528
Castle Wrixon,Cork,52.3008333,-8.6430556,610,5231
Castleblagh,Cork,52.1252778,-8.41,505,5184
Castlelyons,Cork,52.0869444,-8.2788889,226,5188
Castlemacauliffe Long Bridge,Cork,52.1916667,-9.0277778,485,5178
Castlemagner,Cork,52.1661111,-8.8469444,311,5184
Castlemartyr,Cork,51.9102778,-8.0538889,147,5125
Castlenalact,Cork,51.7863889,-8.7436111,246,5229
Castletown,Cork,51.65,-9.9166667,0,3629
Castletown,Cork,51.7716667,-8.9611111,465,5229
Castletown Bearhaven,Cork,51.65,-9.9166667,0,3629
Castletown Berehaven,Cork,51.65,-9.9166667,0,3629
Castletown Kinneigh,Cork,51.7716667,-8.9611111,465,5229
Castletownroche,Cork,52.1519444,-8.5038889,173,5184
Castletownroche,Cork,52.1733333,-8.4625,209,5178
Castletownsend,Cork,51.5263889,-9.1833333,0,3061
Castletownshend,Cork,51.5263889,-9.1833333,0,3061
Ceann Toirc,Cork,52.1666667,-8.9,334,5178
Charless Bridge,Cork,52.0986111,-9.0983333,396,5188
Charleville,Cork,52.35,-8.6833333,357,5288
Church Cross,Cork,51.5438889,-9.3475,3,5130
Churchtown,Cork,52.2666667,-8.7333333,479,5170
Churchtown,Cork,51.9136111,-8.1280556,209,5158
Churchtown,Cork,51.8280556,-8.0808333,19,2438
Cill an Mhuilinn,Cork,52.1458333,-8.5138889,351,5184
Cill Briotain,Cork,51.6755556,-8.6933333,226,4825
Cill Briotáin,Cork,51.6755556,-8.6933333,226,4825
Cill Dairbhre,Cork,52.2461111,-8.4272222,229,5179
Cill Ia,Cork,51.9422222,-7.9977778,118,5205
Cill na Mallach,Cork,52.2333333,-8.6666667,354,5174
Cill Uird,Cork,52.1763889,-8.2441667,180,5178
Cillin an Chronain,Cork,52.2666667,-8.8833333,498,5180
Cillín an Chrónáin,Cork,52.2666667,-8.8833333,498,5180
Cionn tSaile,Cork,51.7075,-8.5305556,3,3480
Cionn tSáile,Cork,51.7075,-8.5305556,3,3480
Clashatrake Bridge,Cork,52.0730556,-8.9969444,541,5192
Clashavodig,Cork,51.8922222,-8.3408333,0,5035
Clashflugh Cross Roads,Cork,51.6352778,-8.8266667,255,4911
Clashmorgan,Cork,52.0813889,-8.6780556,492,5192
Clashreagh,Cork,51.6566667,-8.6372222,226,3063
Classas,Cork,51.9005556,-8.7930556,236,5215
Cleanderry,Cork,51.7402778,-9.9475,219,2975
Clearies Cross Roads,Cork,51.9383333,-7.9280556,193,5041
Cliffort,Cork,51.7575,-8.6669444,246,5229
Cloghane,Cork,51.4552778,-9.8158333,206,927
Cloghboola Bridge,Cork,51.815,-9.2333333,534,5223
Cloghburn,Cork,51.8416667,-9.2783333,508,4856
Cloghdonnell,Cork,51.6058333,-9.3780556,485,5151
Clogheen,Cork,51.9013889,-8.5213889,200,5215
Cloghroe,Cork,51.9247222,-8.6488889,239,5209
Cloich na Coillte,Cork,51.6230556,-8.8705556,101,3472
Clonakilty,Cork,51.6230556,-8.8705556,101,3472
Clondulane,Cork,52.1425,-8.2233333,272,5184
Clonebud,Cork,51.8783333,-9.0594444,459,5215
Clonmult,Cork,51.9936111,-8.1072222,400,5205
Cloonderreen,Cork,51.6641667,-8.7422222,170,4635
Cloonkirgeen,Cork,51.7016667,-9.0255556,328,5237
Cloyne,Cork,51.8627778,-8.1244444,249,4688
Cluain,Cork,51.8627778,-8.1244444,249,4688
Clubhouse Cross Roads,Cork,51.7055556,-9.0680556,249,5237
Clykeel Learys Cross,Cork,52.07,-8.2180556,288,5192
Clykeel Learys Cross,Cork,52.07,-8.2180556,288,5192
Cnocan na Biolrai,Cork,52.0113889,-8.3441667,518,5201
Cnocán na Biolraí,Cork,52.0113889,-8.3441667,518,5201
Coachford,Cork,51.9,-8.7833333,236,5215
Cobh,Cork,51.8572222,-8.2991667,154,3976
Collyregan,Cork,52.2872222,-8.2391667,410,5209
Colthurst Bridge,Cork,51.9580556,-9.1955556,702,4830
Colthurst Bridge,Cork,52.1077778,-8.9819444,396,5188
Conna,Cork,52.0908333,-8.1105556,242,5092
Connonagh,Cork,51.6036111,-9.0922222,226,4928
Coolageela Cross Roads,Cork,52.2069444,-8.9027778,413,5178
Coolavokig,Cork,51.9188889,-9.0858333,439,5130
Coolbaun,Cork,52.1291667,-8.1294444,259,5074
Coolclogh,Cork,52.1363889,-8.9569444,344,5184
Coolcoulagata,Cork,51.6102778,-9.515,465,4818
Coole East,Cork,51.9611111,-8.4594444,400,5205
Coole West,Cork,51.9663889,-8.4708333,472,5205
Cooleenagow Cross Roads,Cork,51.77,-9.0391667,429,5229
Coolnagillagh,Cork,52.0686111,-9.0266667,610,5192
Coomhola Bridge,Cork,51.7538889,-9.4588889,167,4080
Coomleagh,Cork,51.7436111,-9.3058333,938,5233
Coosane,Cork,51.6063889,-9.4691667,403,5122
Copsetown Cross Roads,Cork,52.1811111,-8.6983333,511,5178
Cork,Cork,51.8986111,-8.4958333,187,5215
Cork,Cork,51.8986111,-8.4958333,187,5215
Cornahinch Cross Roads,Cork,52.2111111,-8.6038889,285,5174
Corrabrien Cross Roads,Cork,52.1761111,-8.4027778,209,5178
Corran Cross Roads,Cork,51.8202778,-8.6080556,295,5223
Coulagh,Cork,51.685,-9.9719444,449,3380
Courtmacsherry,Cork,51.6319444,-8.7130556,59,4635
Cousane,Cork,51.7652778,-9.2913889,977,5229
Creagh,Cork,51.5302778,-9.3319444,124,4349
Creagh,Cork,51.6013889,-8.9588889,252,4709
Cregg,Cork,51.5675,-9.0791667,206,3024
Creggolympry,Cork,52.1358333,-8.3619444,259,5184
Crinnaghtane,Cork,52.2063889,-8.1391667,396,4848
Cromponn Bridge,Cork,51.9091667,-7.9327778,3,3608
Cromwella Bridge,Cork,51.7591667,-9.5530556,141,3939
Cronavan,Cork,52.0352778,-8.2627778,462,5201
Crooked Bridge,Cork,51.5638889,-9.4136111,118,4625
Crookhaven,Cork,51.4666667,-9.7166667,0,2168
Crookstown,Cork,51.8477778,-8.8419444,249,5219
Croppys Cross Roads,Cork,51.6625,-8.8611111,196,4845
Cross Barry,Cork,51.8069444,-8.6527778,239,5223
Cross Mahon,Cork,51.7275,-8.78,249,5233
Cross Sheelavarra,Cork,51.7844444,-8.8744444,498,5229
Crosshaven,Cork,51.7983333,-8.3008333,3,3348
Crossterry Bridge,Cork,51.7813889,-9.5558333,616,3939
Crumpane,Cork,51.6936111,-9.94,249,4321
Crushnalanmy Cross Roads,Cork,51.6955556,-8.6647222,298,4739
Cuan Dor,Cork,51.5730556,-9.1188889,295,3472
Cúan Dor,Cork,51.5730556,-9.1188889,295,3472
Cuirt Mhic Sheafraidh,Cork,51.6319444,-8.7130556,59,4635
Cúirt Mhic Shéafraidh,Cork,51.6319444,-8.7130556,59,4635
Cullenagh,Cork,52.2680556,-8.4116667,285,5244
Cullenagh Bridge,Cork,51.8152778,-9.2983333,912,4938
Cullomane Cross Roads,Cork,51.6577778,-9.3822222,459,5220
Cummeen,Cork,51.66,-10.0686111,0,2316
Cummernamart Cross Roads,Cork,51.7905556,-9.1388889,498,5229
Currabeha,Cork,52.1225,-8.1330556,249,5138
Currabeha Cross Roads,Cork,51.8344444,-8.8772222,410,5219
Curragh,Cork,51.7019444,-9.6522222,275,3091
Curragh,Cork,51.8680556,-8.8733333,462,5219
Curragh,Cork,52.1397222,-8.2036111,232,5152
Curraghdermot Cross Roads,Cork,52.0422222,-8.1988889,498,5192
Curraghgorm,Cork,52.2783333,-8.3663889,318,5218
Curraghnalaght Cross Roads,Cork,51.9488889,-8.5502778,272,5209
Curraglass,Cork,52.0930556,-8.0483333,232,4996
Curraheen,Cork,51.8666667,-8.5666667,252,5219
Currahy Bridge,Cork,51.8566667,-9.1752778,501,5219
Curranvellikeen Cross Roads,Cork,51.6877778,-8.845,278,5237
Curryglass,Cork,51.6677778,-9.8216667,3,3637
Dalys Cross Roads,Cork,52.0422222,-8.5655556,679,5192
Dalys Cross Roads,Cork,52.1136111,-8.0908333,242,5092
Dalys Cross Roads,Cork,52.0422222,-8.5655556,679,5192
Dalys Cross Roads,Cork,52.1136111,-8.0908333,242,5092
Danesfort,Cork,52.0994444,-8.7236111,495,5188
Dangan,Cork,51.9727778,-8.0283333,364,5201
Derreenacarrin,Cork,51.7094444,-9.6113889,239,3997
Derreenacush,Cork,51.7366667,-9.9738889,305,1852
Derreennatra,Cork,51.5227778,-9.5025,0,2816
Derreeny Bridge,Cork,51.6130556,-9.2661111,190,5247
Derrineanig,Cork,51.8786111,-9.1680556,538,5215
Derrybrook,Cork,51.8680556,-8.4386111,246,5216
Derryclogh,Cork,51.6463889,-9.2219444,426,5243
Derryfineen,Cork,51.8969444,-9.2055556,856,5215
Derrylough,Cork,51.6897222,-9.6388889,62,3091
Derrynacaheragh,Cork,51.7625,-9.19,472,5229
Derryvane,Cork,51.8694444,-9.1411111,508,5219
Derryvillane,Cork,52.2197222,-8.3855556,183,5175
Deshure,Cork,51.8461111,-8.9969444,501,5219
Donaraile,Cork,52.2166667,-8.5833333,269,5179
Doneraile,Cork,52.2166667,-8.5833333,269,5179
Dongan Bridge,Cork,51.9763889,-8.0258333,364,5201
Donoughmore,Cork,51.9833333,-8.75,557,5205
Donoure,Cork,51.5544444,-8.9577778,39,3100
Doonasleen,Cork,52.1511111,-9.1636111,623,5178
Dooneen,Cork,51.5136111,-9.2330556,236,3745
Dough,Cork,51.4727778,-9.7688889,167,2203
Douglas,Cork,51.8744444,-8.435,131,5216
Downdaniel,Cork,51.7727778,-8.6813889,219,5229
Driminidy,Cork,51.6341667,-9.2241667,216,5243
Drimoleague,Cork,51.65,-9.2666667,249,5243
Drinagh,Cork,51.66,-9.1541667,419,5243
Dripsey,Cork,51.9166667,-8.75,249,5209
Drishane,Cork,51.5197222,-9.2719444,396,4105
Drishane Bridge,Cork,51.5913889,-9.5833333,180,4120
Drishanebeg,Cork,51.5197222,-9.2719444,396,4105
Drohidaspaunig Bridge,Cork,51.8294444,-9.1977778,498,5223
Droichead na Bandon,Cork,51.7469444,-8.7425,229,5233
Droichead na Scuab,Cork,51.8952778,-8.0458333,164,5125
Drom Aidhne,Cork,52.3,-8.8,498,5175
Drom dha Liag,Cork,51.65,-9.2666667,249,5243
Drom dhá Liag,Cork,51.65,-9.2666667,249,5243
Dromahoe,Cork,52.1119444,-8.9838889,396,5188
Dromascoolane Bridge,Cork,52.0444444,-9.0605556,564,5190
Dromcarra Bridge,Cork,51.8588889,-9.0236111,436,5219
Dromcummer More,Cork,52.1463889,-8.8808333,262,5184
Dromdowney,Cork,52.1744444,-8.7252778,413,5178
Dromdrasdil,Cork,51.7486111,-9.2058333,498,5233
Dromgarriff,Cork,51.9905556,-8.5405556,508,5205
Dromgownagh,Cork,51.9208333,-8.7233333,249,5209
Dromina,Cork,52.3,-8.8,498,5175
Drommahane,Cork,52.1047222,-8.6913889,390,5188
Dromore,Cork,51.6686111,-9.3811111,465,5157
Drumlave,Cork,51.6833333,-9.7,0,3110
Dublin Pike,Cork,51.9302778,-8.4641667,259,5209
Dun ar Aill,Cork,52.2166667,-8.5833333,269,5179
Dún ar Aill,Cork,52.2166667,-8.5833333,269,5179
Dun Manmhai,Cork,51.7166667,-9.1166667,249,5233
Dún Mánmhaí,Cork,51.7166667,-9.1166667,249,5233
Dun na Sead,Cork,51.4833333,-9.3666667,190,2413
Dún na Séad,Cork,51.4833333,-9.3666667,190,2413
Dunbulloge Bridge,Cork,51.9747222,-8.4630556,492,5205
Duncannon Bridge,Cork,52.0852778,-9.1933333,469,4549
Dunderrow,Cork,51.7283333,-8.6188889,0,5227
Duneen,Cork,51.5775,-8.8816667,0,2492
Dungourney,Cork,51.9683333,-8.0972222,347,5205
Dunmanus,Cork,51.5377778,-9.6783333,298,2393
Dunmanway,Cork,51.7166667,-9.1166667,249,5233
Dunowen,Cork,51.55,-8.9166667,0,3100
Dunsland,Cork,51.9075,-8.3797222,78,5196
Duras,Cork,51.6166667,-9.5333333,232,4818
Dúras,Cork,51.6166667,-9.5333333,232,4818
Durrus,Cork,51.6166667,-9.5333333,232,4818
Eadargoil,Cork,51.7008333,-9.725,147,3033
Eadargóil,Cork,51.7008333,-9.725,147,3033
East Grove,Cork,51.8708333,-8.2069444,104,4624
Eastern Bridge,Cork,51.7191667,-8.5019444,252,4752
Edgars Cross Roads,Cork,52.0980556,-8.2019444,209,5173
Edgars Cross Roads,Cork,52.0980556,-8.2019444,209,5173
Enniskean,Cork,51.7416667,-8.9380556,236,5233
Enniskeen,Cork,51.7416667,-8.9380556,236,5233
Eochaill,Cork,51.95,-7.8505556,0,3031
Esk,Cork,52.0625,-8.8102778,997,5192
Eyeries,Cork,51.6833333,-9.95,262,4321
Farahy,Cork,52.2408333,-8.4422222,249,5179
Farnanes,Cork,51.8647222,-8.8061111,239,5219
Farnanes Cross Roads,Cork,51.8647222,-8.8061111,239,5219
Farran,Cork,51.8744444,-8.7377778,229,5219
Farran,Cork,52.0333333,-8.6666667,574,5201
Farran,Cork,52.0975,-8.2733333,229,5188
Farranavarra,Cork,51.8727778,-8.7197222,229,5219
Farrangalway,Cork,51.7358333,-8.5522222,216,5059
Farranthomas,Cork,51.7766667,-8.8930556,406,5229
Farsid,Cork,51.8463889,-8.2047222,22,4624
Fartha,Cork,51.7652778,-8.4533333,282,5202
Father Murphys Bridge,Cork,52.1116667,-8.8888889,442,5188
Father Murphys Bridge,Cork,52.1116667,-8.8888889,442,5188
Fergus,Cork,51.9019444,-8.7538889,232,5215
Fergus Cross Roads,Cork,51.9041667,-8.7411111,249,5215
Fermoy,Cork,52.1358333,-8.2758333,236,5184
Finnanfield,Cork,52.0355556,-8.9613889,1184,5201
Finnow Bridge,Cork,52.0766667,-9.0719444,426,5190
Firmount,Cork,51.9833333,-8.7,498,5205
Fivemilebridge,Cork,51.8197222,-8.4963889,190,5223
Flaxfort,Cork,51.895,-8.3605556,0,5035
Flemingstown,Cork,52.2430556,-8.3144444,308,5175
Floraville,Cork,51.6772222,-9.1647222,498,5237
Foherlagh,Cork,51.5719444,-9.3580556,249,5130
Foiladaun,Cork,52.2594444,-9.1594444,994,5187
Foilakill,Cork,51.6313889,-9.6502778,328,2446
Fornaght,Cork,51.9822222,-8.6944444,492,5205
Fort Arthur,Cork,51.675,-8.5763889,262,4229
Fort Cross Roads,Cork,51.8352778,-8.4933333,219,5219
Fort Prospect,Cork,51.6388889,-8.8397222,249,4845
Fort William,Cork,51.8247222,-8.6561111,331,5223
Fort William,Cork,52.2011111,-8.6069444,295,5178
Fourcuil,Cork,51.65,-8.9,229,5027
Freemount,Cork,52.2666667,-8.8833333,498,5180
Furkeal Bridge,Cork,51.7413889,-9.5591667,0,3302
Gallatrim,Cork,51.7647222,-8.7541667,252,5229
Garinish,Cork,51.6,-10.1333333,0,635
Garnish,Cork,51.6,-10.1333333,0,635
Garrane,Cork,52.1191667,-8.93,482,5188
Garrane Cross Roads,Cork,52.3202778,-8.6186111,882,5296
Garranelahan Cross Roads,Cork,51.7072222,-8.8541667,249,5237
Garrison,Cork,52.2172222,-8.8763889,488,5174
Garryduff,Cork,52.1908333,-8.7697222,413,5178
Garryduff,Cork,52.0166667,-8.1166667,472,5201
Garrylucas,Cork,51.6419444,-8.5752778,0,2487
Garryvoe,Cork,51.8755556,-8.02778,45,4749
Garteen Cross Roads,Cork,51.7402778,-8.8158333,242,5233
Geara Bridge,Cork,51.7930556,-9.0238889,505,5223
Gearagh,Cork,51.65,-8.9666667,249,5243
Gerahies,Cork,51.6477778,-9.5877778,229,2404
Glan,Cork,51.55,-9.5886111,278,4076
Glan Cross Roads,Cork,51.8075,-9.0544444,501,5223
Glanaphuca Bridge,Cork,51.6230556,-9.3563889,393,5233
Glanbannoo Upper,Cork,51.7061111,-9.365,475,5237
Glandart,Cork,51.6958333,-9.3452778,889,5237
Glandore,Cork,51.5730556,-9.1188889,295,3472
Glandore Bridge,Cork,51.5716667,-9.1388889,252,4009
Glanmire,Cork,51.9158333,-8.3997222,91,5196
Glannagaul,Cork,52.0775,-8.3669444,488,5192
Glantane,Cork,51.9997222,-9.0613889,836,5196
Glanworth,Cork,52.1866667,-8.3575,144,5178
Glasheenanargid,Cork,52.2502778,-9.1488889,1000,5187
Gleann an Phreachain,Cork,52.0438889,-8.4247222,462,5192
Gleann an Phréacháin,Cork,52.0438889,-8.4247222,462,5192
Gleann Maghair,Cork,51.9158333,-8.3997222,91,5196
Gleannuir,Cork,52.1866667,-8.3575,144,5178
Gleannúir,Cork,52.1866667,-8.3575,144,5178
Glenaknockane,Cork,52.0347222,-8.8363889,1007,5201
Glenally,Cork,51.9622222,-7.8783333,29,4785
Glenathonacash,Cork,51.9647222,-8.1508333,459,5205
Glenatlucky,Cork,52.2394444,-8.2683333,511,5175
Glenavuddig Bridge,Cork,52.2488889,-8.4041667,203,5175
Glenawilling,Cork,51.8827778,-7.9152778,3,2586
Glenbrook,Cork,51.865,-8.3627778,255,4707
Glencollins,Cork,52.1733333,-9.2238889,757,4275
Glendine Bridge,Cork,52.047222,-8.1497222,400,5192
Glenduff,Cork,52.2555556,-8.1655556,498,3818
Glenfinish Bridge,Cork,52.1694444,-8.1830556,301,5117
Glengariff,Cork,51.75,-9.55,0,3302
Glengarriff,Cork,51.75,-9.55,0,3302
Glennahulla Cross,Cork,52.2530556,-8.3636111,255,5218
Glentrasna,Cork,52.0402778,-8.1677778,459,5201
Glenville,Cork,52.0438889,-8.4247222,462,5192
Glounthaune,Cork,51.9111111,-8.3611111,137,5035
Glounthaune,Cork,51.9,-8.3333333,0,4726
Goleen,Cork,51.4938889,-9.7091667,0,2168
Goolaway Cross Roads,Cork,52.2391667,-8.5427778,255,5179
Gortafludig,Cork,51.8555556,-9.2838889,656,4856
Gortaroo,Cork,51.9272222,-7.9180556,45,5041
Gortavadda Bridge,Cork,51.8955556,-7.9466667,3,3608
Gortaveer,Cork,51.8586111,-9.0980556,396,5219
Gortearagh,Cork,52.1791667,-9.0358333,498,5178
Gortgarriff,Cork,51.7252778,-9.9688889,249,1852
Gortloughra Bridge,Cork,51.7975,-9.2738889,1282,5164
Gortnaclasha,Cork,51.5775,-9.6986111,0,2854
Gortnacrue,Cork,51.9411111,-8.1788889,203,5209
Gortnagappul,Cork,51.9638889,-7.9852778,252,5162
Gortnagross,Cork,52.1463889,-8.7208333,278,5184
Gortnakilly,Cork,51.6141667,-9.6947222,429,1931
Gortnaloughra,Cork,51.8591667,-9.2919444,780,4158
Gortroche,Cork,52.1205556,-8.4158333,725,5188
Gortroe,Cork,52.1105556,-8.7825,393,5188
Gortroe Cross Roads,Cork,51.6080556,-9.1033333,246,4928
Gothic Bridge,Cork,51.9266667,-8.5572222,216,5209
Gouladane,Cork,51.6275,-9.6436111,495,2446
Gouladoo,Cork,51.6205556,-9.6808333,616,1931
Gour Bridge,Cork,51.6394444,-9.9636111,206,3638
Gowlane North,Cork,52.0311111,-8.7688889,954,5201
Gowlane South,Cork,52.061111,-8.7494444,964,5192
Graig Upper,Cork,52.26,-8.4980556,314,5283
Graigue Bridge,Cork,51.8569444,-9.1661111,495,5219
Grange,Cork,52.2116667,-8.6922222,472,5174
Grange,Cork,52.0927778,-8.1736111,180,5173
Grange,Cork,51.9863889,-7.7527778,203,3789
Grange Hill,Cork,51.8638889,-8.6430556,341,5219
Greenfort,Cork,51.9827778,-8.6130556,498,5205
Greenhall,Cork,52.2133333,-8.8033333,479,5174
Greenville,Cork,51.9197222,-8.2605556,114,5209
Grenagh,Cork,52.0166667,-8.6,498,5201
Gurteenastooka,Cork,51.9811111,-8.5708333,452,5205
Gyleen,Cork,51.7977778,-8.1875,3,3228
Hawthorn Hill,Cork,51.7711111,-8.615,249,5229
Hayes Bridge,Cork,51.6666667,-8.75,134,5077
Hayes Cross Roads,Cork,51.5905556,-8.9477778,249,4814
Henleys Bridge,Cork,51.9088889,-8.5780556,209,5215
Henleys Bridge,Cork,51.9088889,-8.5780556,209,5215
Hightown,Cork,52.0330556,-8.2797222,495,5201
Holys Cross Roads,Cork,52.1761111,-8.7727778,341,5178
Holys Cross Roads,Cork,52.1761111,-8.7727778,341,5178
Horsehead,Cork,51.8755556,-8.3444444,16,5035
Ightermurragh,Cork,51.8961111,-8.0183333,62,4749
Inch,Cork,51.8058333,-8.1825,13,3228
Inch,Cork,51.9863889,-7.9797222,249,5162
Inchantatane,Cork,52.2341667,-9.1008333,826,5174
Inches,Cork,52.0794444,-9.1755556,452,4227
Inchigeelagh,Cork,51.8333333,-9.1166667,505,5223
Inchileigh Bridge,Cork,52.0594444,-9.0727778,501,5190
Inchinossig Bridge,Cork,51.8583333,-9.24,492,5192
Inchintaglin Bridge,Cork,51.7133333,-9.72,308,3584
Inchisine,Cork,51.8697222,-9.0238889,396,5219
Inis Cein,Cork,51.7416667,-8.9380556,236,5233
Inis Céin,Cork,51.7416667,-8.9380556,236,5233
Inis Eonain,Cork,51.7680556,-8.6591667,232,5229
Inis Eonáin,Cork,51.7680556,-8.6591667,232,5229
Inishannon,Cork,51.7680556,-8.6591667,232,5229
Inishcarra,Cork,51.8833333,-8.6333333,223,5215
Inishcarra Bridge,Cork,51.8902778,-8.6227778,219,5215
Innishannon,Cork,51.7680556,-8.6591667,232,5229
Inse Geimhleach,Cork,51.8333333,-9.1166667,505,5223
Insnasallagh,Cork,52.1575,-8.2761111,111,5184
Johns Bridge,Cork,52.2363889,-8.8872222,456,5174
Johns Bridge,Cork,52.2363889,-8.8872222,456,5174
Johnstown,Cork,51.8191667,-9.0894444,498,5223
Jordans Bridge,Cork,52.0797222,-8.6263889,403,5192
Jordans Bridge,Cork,52.0797222,-8.6263889,403,5192
Kanturk,Cork,52.1666667,-8.9,334,5178
Keale Bridge,Cork,52.0911111,-9.0280556,387,5188
Kealincha Bridge,Cork,51.6891667,-9.9327778,295,4321
Kealkill,Cork,51.7572222,-9.3991667,209,5076
Kean Bridge,Cork,52.0475,-8.4083333,423,5192
Kean Cross Roads,Cork,52.0172222,-8.2511111,498,5201
Kearneys Cross Roads,Cork,52.022222,-8.3152778,528,5201
Kearneys Cross Roads,Cork,52.022222,-8.3152778,528,5201
Keel,Cork,52.1744444,-9.0827778,557,5178
Kennys Cross Roads,Cork,52.1052778,-8.2447222,249,5188
Kennys Cross Roads,Cork,52.1052778,-8.2447222,249,5188
Kibmountain Cross Roads,Cork,51.9219444,-8.0869444,206,5209
Kilbarry,Cork,51.8666667,-9.05,383,5219
Kilbarry,Cork,51.9166667,-8.4666667,209,5209
Kilbeg,Cork,51.7633333,-8.3283333,32,2760
Kilbrittain,Cork,51.6755556,-8.6933333,226,4825
Kilbrona Cross Roads,Cork,51.7563889,-8.7419444,226,5229
Kilclogh,Cork,51.96,-8.69,485,5205
Kilcor,Cork,52.0627778,-8.2083333,308,5192
Kilcoran,Cork,52.1230556,-8.0861111,272,5092
Kilcorney,Cork,52.0811111,-8.9716667,498,5192
Kilcrea,Cork,51.85,-8.7166667,269,5219
Kilcredan,Cork,51.8819444,-7.9811111,6,4212
Kilcrohane,Cork,51.5847222,-9.7038889,0,1931
Kilcronan,Cork,51.9594444,-8.525,357,5205
Kilcully,Cork,51.9336111,-8.4816667,249,5209
Kilcummer Bridge,Cork,52.1555556,-8.4516667,183,5184
Kildorrery,Cork,52.2461111,-8.4272222,229,5179
Kilkinnikin,Cork,51.6072222,-10.0436111,187,2130
Kill,Cork,51.9175,-8.94,364,5209
Killaneer Cross Roads,Cork,51.7788889,-8.9041667,370,5229
Killard,Cork,51.9227778,-8.5544444,216,5209
Killare,Cork,52.3383333,-8.7386111,475,5255
Killavullen,Cork,52.1458333,-8.5138889,351,5184
Killawillin,Cork,52.1458333,-8.5138889,351,5184
Killeady Cross Roads,Cork,51.8072222,-8.6336111,226,5223
Killeagh,Cork,51.9422222,-7.9977778,118,5205
Killeagh Cross Roads,Cork,51.9988889,-8.4522222,498,5205
Killee Bridge,Cork,52.2647222,-8.3236111,278,5225
Killeen,Cork,51.9344444,-8.63,249,5209
Killeen,Cork,51.7472222,-8.3402778,78,2911
Killeena,Cork,51.9472222,-8.3258333,328,5209
Killeenemer,Cork,52.2091667,-8.3211111,278,5175
Killeenleagh,Cork,51.6394444,-9.3130556,206,5243
Killeens Cross,Cork,51.9247222,-8.5163889,216,5209
Killhanna Cross Roads,Cork,51.8269444,-9.0744444,508,5223
Killinardresh,Cork,51.9,-8.85,252,5215
Killinardrish,Cork,51.9,-8.85,252,5215
Killoveenoge,Cork,51.6547222,-9.5675,114,2765
Killumney,Cork,51.8666667,-8.65,298,5219
Kilmaclenine Cross Roads,Cork,52.1952778,-8.7197222,495,5178
Kilmartin Upper,Cork,51.9952778,-8.7894444,633,5205
Kilmeen Cross Roads,Cork,51.6877778,-8.9833333,370,5237
Kilmichael,Cork,51.8480556,-9.0355556,452,5219
Kilmona,Cork,51.9927778,-8.5708333,475,5205
Kilmoon,Cork,51.47,-9.4163889,0,1747
Kilmoylerane South,Cork,51.685,-8.9013889,255,5237
Kilmurry,Cork,51.8466667,-8.8911111,498,5219
Kilnaglory,Cork,51.8686111,-8.6155556,278,5219
Kilpatrick,Cork,51.7802778,-8.7219444,239,5229
Kilphillibeen,Cork,52.0477778,-8.1194444,370,5187
Kilquane Bridge,Cork,51.9638889,-8.3422222,344,5205
Kilroe,Cork,52.1416667,-8.7727778,249,5184
Kilronane,Cork,51.7086111,-9.0813889,249,5233
Kilruane Bridge,Cork,51.6036111,-8.9738889,249,4709
Kilworth,Cork,52.1763889,-8.2441667,180,5178
Kilworth Camp,Cork,52.2138889,-8.2722222,547,5175
Kingwilliamstown,Cork,52.1833333,-9.2333333,793,4275
Kinneigh,Cork,51.7666667,-8.9666667,459,5229
Kinsale,Cork,51.7075,-8.5305556,3,3480
Kippagh,Cork,52.0413889,-9.1341667,980,4689
Kippagh,Cork,52.1213889,-8.9569444,328,5188
Kippagh Bridge,Cork,51.6630556,-9.0744444,419,5243
Knock,Cork,51.6883333,-8.9530556,249,5237
Knockacrump,Cork,51.8738889,-8.1175,246,4688
Knockananig,Cork,52.1172222,-8.345,557,5188
Knockanare,Cork,51.9666667,-8.7333333,498,5205
Knockanemore,Cork,51.8758333,-8.6666667,252,5215
Knockanevin,Cork,52.2947222,-8.3822222,479,5366
Knockansweeny,Cork,52.1083333,-8.7313889,387,5188
Knockardrahan,Cork,52.1488889,-8.9663889,462,5184
Knockaskehane,Cork,52.1597222,-8.1927778,226,5152
Knockbrack,Cork,52.0930556,-8.5508333,770,5188
Knockburden,Cork,51.8616667,-8.6472222,472,5219
Knockmanagh,Cork,52.1866667,-9.0722222,534,5178
Knockmourne,Cork,52.0947222,-8.1241667,242,5092
Knocknahilan,Cork,51.8438889,-8.7411111,291,5219
Knocknaud,Cork,51.6433333,-9.9519444,59,3629
Knockoura,Cork,51.6466667,-9.9811111,449,3638
Knockraha,Cork,51.9563889,-8.3405556,288,5209
Knoppoge Bridge,Cork,51.7063889,-8.6777778,291,4825
Lackanastooka,Cork,52.155,-9.2325,636,3844
Lackareagh,Cork,51.7647222,-9.8941667,3,1909
Lacknahaghny,Cork,51.9625,-8.9102778,941,5205
Ladys Odell,Cork,51.6775,-9.4922222,78,3654
Ladys Odell,Cork,51.6775,-9.4922222,78,3654
Ladysbridge,Cork,51.8952778,-8.0458333,164,5125
Laharan,Cork,52.0633333,-9.011111,613,5192
Laharan Cross Roads,Cork,52.0844444,-8.7905556,875,5188
Lahard,Cork,51.7969444,-8.1688889,3,3228
Lahardane,Cork,51.9277778,-8.4533333,249,5209
Laherne,Cork,51.6452778,-8.5955556,0,3066
Laragh,Cork,52.355,-8.8330556,377,5263
Larehill Cross Roads,Cork,51.8791667,-8.8580556,416,5215
Leaders Bridge,Cork,52.1391667,-8.8991667,285,5184
Leaders Bridge,Cork,52.1391667,-8.8991667,285,5184
Leamlara,Cork,51.9722222,-8.2794444,498,5205
Leap,Cork,51.5925,-9.13,249,5077
Learys Cross Roads,Cork,51.8777778,-8.7980556,439,5215
Learys Cross Roads,Cork,51.8777778,-8.7980556,439,5215
Lehenagh,Cork,51.5952778,-8.7752778,3,3647
Leitry Bridge,Cork,51.7047222,-9.2661111,938,5237
Letter,Cork,51.5697222,-9.5108333,249,4477
Letter,Cork,51.6538889,-8.9452778,249,5204
Letterlicky Bridge,Cork,51.6466667,-9.4544444,393,4972
Lickowen,Cork,51.5008333,-9.2297222,9,3745
Linnamilla Bridge,Cork,51.9019444,-9.025,344,5215
Lios Cearuill,Cork,52.25,-8.8,498,5174
Lios Cearúill,Cork,52.25,-8.8,498,5174
Liscarrigane,Cork,51.9613889,-9.0802778,849,5196
Liscarroll,Cork,52.25,-8.8,498,5174
Lisduff,Cork,51.9677778,-8.5311111,419,5205
Lisgoold,Cork,51.9733333,-8.2191667,331,5205
Lisheen,Cork,51.5222222,-9.3941667,3,3342
Lisheen Bridge,Cork,52.1238889,-9.2258333,498,3539
Lislevane,Cork,51.6083333,-8.7794444,59,3647
Lismire,Cork,52.2269444,-8.9455556,524,5174
Lisnaboy,Cork,52.1088889,-9.1544444,498,5152
Lispatrick,Cork,51.6347222,-8.5638889,0,2487
Lissacresig,Cork,51.9161111,-9.0588889,387,5215
Lissacroneen Cross Roads,Cork,51.7566667,-8.9877778,426,5229
Lissagraffin,Cork,51.4836111,-9.7830556,88,2203
Lissanisky,Cork,51.8711111,-8.3052778,232,3976
Lissaphooca,Cork,51.7175,-8.7425,439,5233
Lissaphooca Cross Roads,Cork,51.7175,-8.7425,439,5233
Lissardagh,Cork,51.86,-8.88,462,5219
Lissarnona,Cork,51.445,-9.4794444,0,0
Lissarourke,Cork,51.7847222,-8.9241667,442,5229
Lisselan,Cork,51.6544444,-8.8738889,200,4845
Little Island Roads,Cork,51.9008333,-8.3525,32,5035
Loughane,Cork,51.8702778,-8.0491667,127,4265
Loughane East,Cork,51.9502778,-8.6141667,295,5209
Loughbeg,Cork,51.8263889,-8.3183333,0,3348
Loumanagh,Cork,52.1452778,-9.0988889,528,5184
Loumore,Cork,51.9055556,-8.4225,203,5215
Lowertown,Cork,51.5244444,-9.6022222,124,3289
Lurrig,Cork,51.8527778,-8.1522222,219,4825
Luskins Bridge,Cork,51.9363889,-8.77,341,5209
Luskins Bridge,Cork,51.9363889,-8.77,341,5209
Lyre,Cork,51.6752778,-8.9413889,242,5237
Lyre,Cork,52.0502778,-8.0227778,511,5000
Lyredaowen,Cork,52.0913889,-9.1616667,439,5152
Lyrenageeha,Cork,51.8736111,-9.2808333,912,4856
Mackeys Cross,Cork,51.9061111,-8.5455556,206,5215
Mackeys Cross,Cork,51.9061111,-8.5455556,206,5215
Macroom,Cork,51.9,-8.95,288,5215
Maigh Chromtha,Cork,51.9,-8.95,288,5215
Mainister na Corann,Cork,51.9094444,-8.1736111,154,4929
Mainistir Fhear Mai,Cork,52.1358333,-8.2758333,236,5184
Mainistir Fhear Maí,Cork,52.1358333,-8.2758333,236,5184
Mala,Cork,52.1333333,-8.6333333,242,5184
Mall Cross Roads,Cork,51.6172222,-9.0977778,328,4928
Mallow,Cork,52.1333333,-8.6333333,242,5184
Manch Bridge,Cork,51.7277778,-9.0247222,239,5233
Manning,Cork,52.1847222,-8.3341667,127,5178
Marshalstown,Cork,52.2619444,-8.3561111,242,5218
Massytown,Cork,51.9,-8.9666667,291,5215
Matehy,Cork,51.9527778,-8.6572222,360,5209
Maugha,Cork,51.7975,-9.3763889,1036,4264
Maulanimirish,Cork,51.7008333,-9.1294444,482,5237
Maulawaddra,Cork,51.5386111,-9.6372222,200,2703
Maulmane Bridge,Cork,51.6919444,-8.7219444,249,5077
Maunvough,Cork,51.6836111,-9.3747222,531,5237
Meadstown,Cork,51.8113889,-8.4630556,285,5223
Meelshane,Cork,51.8802778,-8.0902778,249,5215
Meen Bridge,Cork,51.5644444,-9.39,360,4625
Meens,Cork,52.1938889,-9.1008333,662,5178
Middleton,Cork,51.9094444,-8.1736111,154,4929
Midleton,Cork,51.9094444,-8.1736111,154,4929
Milford,Cork,52.3333333,-8.85,433,5208
Milleen Bridge,Cork,51.585,-9.1866667,249,5210
Milleeny,Cork,51.9405556,-9.2541667,853,3924
Millfield,Cork,51.9180556,-8.4705556,209,5209
Millstreet,Cork,52.0666667,-9.0666667,446,5190
Millstreet,Cork,52.2022222,-8.1716667,341,5117
Milltown,Cork,51.5872222,-8.9794444,173,4709
Milltown Cross Roads,Cork,52.3316667,-8.7330556,515,5169
Milmorane,Cork,51.8611111,-9.1894444,505,5219
Minane Bridge,Cork,51.7644444,-8.3741667,239,4400
Minanes,Cork,51.6505556,-9.1797222,328,5243
Mitchelstown,Cork,52.2658333,-8.2680556,456,5252
Moanflugh,Cork,51.9677778,-8.9825,692,5205
Mogeely,Cork,51.9308333,-8.0594444,203,5209
Molly Barry Cross Roads,Cork,52.1772222,-8.2605556,170,5178
Monagurra,Cork,51.8438889,-8.0366667,3,3361
Monaleen Bridge,Cork,52.069444,-8.1913889,298,5192
Monavanshere,Cork,51.9688889,-8.7072222,498,5205
Monavarnoge,Cork,51.9977778,-8.0219444,492,5201
Monee Cross Roads,Cork,52.0958333,-8.5888889,541,5188
Moneynacroha Cross Roads,Cork,51.7961111,-8.9505556,501,5223
Monkstown,Cork,51.8505556,-8.3413889,0,4707
Moonbaun,Cork,51.9886111,-8.2991667,541,5205
Moskeagh Cross Roads,Cork,51.8194444,-8.7880556,475,5223
Mossgrove Cross Roads,Cork,51.7986111,-8.8516667,498,5223
Mount Massy,Cork,51.9163889,-8.9844444,344,5215
Mount Rivers,Cork,51.97,-8.8347222,498,5205
Mount Rivers,Cork,52.1513889,-8.2430556,173,5184
Mount Uniacke,Cork,51.9791667,-8.036111,442,5201
Moyny,Cork,51.6825,-9.2975,423,5237
Moyny Bridge,Cork,51.6744444,-9.2808333,269,5237
Murnaghbeg,Cork,51.9313889,-9.1902778,528,4830
Murragh,Cork,51.7430556,-8.9141667,236,5233
Murteys Cross Roads,Cork,52.0205556,-8.065,498,5189
Murteys Cross Roads,Cork,52.0205556,-8.065,498,5189
Musheen,Cork,51.8861111,-8.5138889,196,5215
Mutton Bridge,Cork,51.6566667,-9.2725,239,5243
Mylane Cross Roads,Cork,51.8497222,-8.645,531,5219
Myross,Cork,51.5319444,-9.1466667,3,2106
Myrtleville,Cork,51.7805556,-8.2944444,0,2760
Na Fearnain,Cork,51.8647222,-8.8061111,239,5219
Na Fearnáin,Cork,51.8647222,-8.8061111,239,5219
Na hAilichi,Cork,51.6333333,-10.0333333,439,3226
Na hAilichí,Cork,51.6333333,-10.0333333,439,3226
Na hAorai,Cork,51.6833333,-9.95,262,4321
Na hAoraí,Cork,51.6833333,-9.95,262,4321
Nadanuller Beg,Cork,52.0544444,-8.8536111,954,5192
Nedinagh,Cork,51.7311111,-9.0736111,370,5233
New Bridge,Cork,51.5552778,-9.2733333,255,5233
Newcestown,Cork,51.7822222,-8.8736111,498,5229
Newmarket,Cork,52.2166667,-9,472,5174
Newmills,Cork,51.5872222,-8.9794444,173,4709
Newtown,Cork,52.35,-8.7666667,390,5249
Newtown,Cork,52.3075,-8.6575,498,5231
Newtownshandrum,Cork,52.35,-8.7666667,390,5249
Nohaval,Cork,51.7247222,-8.4069444,85,3708
Nohaval Bridge,Cork,52.0936111,-9.2069444,479,4549
Nohavaldaly,Cork,52.0958333,-9.1805556,459,4549
Nohoval,Cork,51.7247222,-8.4069444,85,3708
North Ring,Cork,51.615,-8.8588889,0,3472
Old Bride Bridge,Cork,52.0561111,-8.4158333,433,5192
Old Chapel Cross Roads,Cork,51.8063889,-8.6944444,314,5223
Old Courth,Cork,51.8616667,-8.3883333,282,5141
Old Port House,Cork,51.7927778,-8.7883333,331,5223
Oldcastletown,Cork,52.2591667,-8.4286111,291,5270
Oldchapel,Cork,51.7366667,-8.7855556,249,5233
Oldcourt,Cork,51.6705556,-8.5708333,232,4229
Ovens,Cork,51.8666667,-8.6666667,282,5219
Oysterhaven,Cork,51.6916667,-8.4430556,0,2246
Pallas,Cork,51.5922222,-8.9086111,242,4212
Parkbane,Cork,51.7911111,-8.8652778,508,5229
Passage,Cork,51.8738889,-8.3444444,16,4707
Passage West,Cork,51.8738889,-8.3444444,16,4707
Paulsworth,Cork,51.9741667,-7.7033333,0,2905
Peafield,Cork,52.097222,-8.2016667,209,5173
Pedlars Cross Roads,Cork,51.6927778,-8.8605556,249,5237
Pendys Cross Roads,Cork,52.095,-8.6905556,515,5188
Pendys Cross Roads,Cork,52.095,-8.6905556,515,5188
Piersons Bridge,Cork,51.7441667,-9.4155556,164,5143
Pigeonhill Cross Roads,Cork,51.9613889,-8.2944444,501,5205
Pike Cross Roads,Cork,51.6102778,-8.9780556,249,4709
Pike Cross Roads,Cork,51.7247222,-8.8625,249,5233
Pilltown,Cork,51.9666667,-7.8,65,3933
Pluckanes,Cork,51.9986111,-8.6944444,498,5205
Ponnd Cross Roads,Cork,51.9088889,-8.6019444,282,5215
Poulanargid,Cork,51.8422222,-8.9352778,511,5219
Poulnaherry Bridge,Cork,51.7927778,-9.1325,498,5223
Pound Cross Roads,Cork,52.0141667,-8.1105556,498,5201
Powers Bridge,Cork,52.0952778,-8.4330556,859,5188
Powers Bridge,Cork,52.0952778,-8.4330556,859,5188
Promore,Cork,52.2080556,-8.5561111,252,5178
Quakers Cross Roads,Cork,51.6019444,-9.0186111,216,4622
Quarry Cross Roads,Cork,51.8075,-8.8361111,511,5223
Queenstown,Cork,51.8572222,-8.2991667,154,3976
Raheen Bridge,Cork,52.2883333,-8.9319444,505,5200
Rascalstreet,Cork,52.1969444,-9.1680556,918,5044
Rassmore,Cork,51.8708333,-9.0830556,488,5219
Rath,Cork,52.2783333,-8.7361111,475,5170
Rath Chormaic,Cork,52.0769444,-8.2819444,226,5192
Ráth Chormaic,Cork,52.0769444,-8.2819444,226,5192
Rath Luirc,Cork,52.35,-8.6833333,357,5288
Ráth Luirc,Cork,52.35,-8.6833333,357,5288
Rathcormac,Cork,52.0769444,-8.2819444,226,5192
Rathcormack,Cork,52.0769444,-8.2819444,226,5192
Rathcoursey,Cork,51.8780556,-8.1858333,249,4929
Rathduff,Cork,52.0166667,-8.5833333,492,5201
Rathmore,Cork,51.5058333,-9.3508333,206,4315
Rathmorgan,Cork,52.3405556,-8.6544444,400,5339
Rathrnane Bridge,Cork,51.5727778,-9.4808333,104,4191
Rathruane,Cork,51.5805556,-9.4997222,242,4191
Ravenswood,Cork,51.8225,-8.4191667,26,5217
Ray Bridge,Cork,51.785,-8.6102778,249,5229
Reagrove,Cork,51.735,-8.3555556,173,2911
Reanascreena,Cork,51.6347222,-9.0555556,498,5243
Reavouler Bridge,Cork,51.6522222,-9.1555556,419,5243
Red Cross Roads,Cork,51.6111111,-9.3280556,206,5247
Redforge,Cork,51.9905556,-7.9275,314,5064
Redforge Cross Roads,Cork,51.9905556,-7.9275,314,5064
Redgate,Cork,52.1038889,-8.9058333,836,5188
Releagh,Cork,51.7833333,-9.5666667,593,3939
Rerrin,Cork,51.6394444,-9.8175,3,2386
Ringaskiddy,Cork,51.8338889,-8.3169444,3,3976
Rinn an Scidigh,Cork,51.8338889,-8.3169444,3,3976
Rinn an Scidígh,Cork,51.8338889,-8.3169444,3,3976
Riverstick,Cork,51.7775,-8.4977778,246,5216
Riverstown,Cork,51.9263889,-8.3891667,213,5209
Rochestown,Cork,51.87,-8.3830556,278,5141
Rockenham,Cork,51.8777778,-8.3486111,62,5035
Rockmills,Cork,52.2219444,-8.4136111,219,5175
Roosk,Cork,51.6825,-9.6519444,0,3091
Rooves Beg,Cork,51.8888889,-8.8077778,308,5215
Roskeen Bridge,Cork,52.1413889,-8.8122222,249,5184
Rossbrin,Cork,51.5352778,-9.4836111,0,2271
Rosslague,Cork,51.8711111,-8.2758333,239,3493
Rossmore,Cork,51.6794444,-8.9905556,334,5237
Rostellan,Cork,51.8486111,-8.1955556,137,4624
Roury Bridge,Cork,51.5836111,-9.0697222,232,4787
Rowls Allen,Cork,52.2919444,-9.0391667,951,5319
Runalunn,Cork,51.5875,-9.2655556,321,5247
Rushbrooke,Cork,51.85,-8.3166667,0,3976
Rushmount,Cork,52.1844444,-8.2622222,239,5178
Rylane,Cork,51.9833333,-8.8333333,626,5205
Rylane Cross,Cork,51.9833333,-8.8333333,626,5205
Saint Annes Hill,Cork,51.9333333,-8.6,223,5209
Saint Annes Hill,Cork,51.9333333,-8.6,223,5209
Saint Anns,Cork,51.9333333,-8.6,223,5209
Saint Anns,Cork,51.9333333,-8.6,223,5209
Saint Anns Hill,Cork,51.9333333,-8.6,223,5209
Saleen,Cork,51.8633333,-8.1655556,242,4825
Sally Port,Cork,51.6922222,-8.4997222,0,2665
Sallybrook,Cork,51.935,-8.3863889,252,5209
Sams Cross Roads,Cork,51.6216667,-8.9752778,249,4709
Sams Cross Roads,Cork,51.6216667,-8.9752778,249,4709
Sandy Cove,Cork,51.6769444,-8.5491667,190,4229
Scilly,Cork,51.7063889,-8.5216667,3,3480
Scrahane Cross Roads,Cork,51.7655556,-8.885,351,5229
Scrahane Cross Roads,Cork,52.072222,-8.4052778,577,5192
Scronagare,Cork,51.9322222,-9.0691667,515,5205
Sea View,Cork,51.6508333,-8.645,85,3063
Seafort,Cork,51.5113889,-9.585,0,3289
Sealaclare Bridge,Cork,51.5577778,-9.4125,147,4625
Shamrock Bridge,Cork,52.0872222,-9.1613889,446,5152
Shanacrane,Cork,51.7861111,-9.2169444,616,5229
Shanadungan Cross Roads,Cork,51.8658333,-8.8513889,485,5219
Shanagarry,Cork,51.8544444,-8.0708333,150,4265
Shanagh,Cork,51.5822222,-8.7188889,3,1459
Shanahee,Cork,51.8180556,-8.1347222,3,3264
Shanavoher,Cork,52.1994444,-9.2052778,918,5044
Shanbally,Cork,51.8325,-8.3575,36,4634
Shanballymore,Cork,52.2202778,-8.5013889,226,5188
Shanballyreagh,Cork,51.9811111,-8.3261111,528,5205
Shanlaragh,Cork,51.7955556,-9.0788889,498,5223
Shantullig North,Cork,51.5838889,-9.5413889,488,4818
Sheskinny Cross,Cork,51.9777778,-8.8358333,541,5205
Shronacarton Cross Roads,Cork,51.6819444,-9.2327778,498,5237
Shronebeha,Cork,52.1133333,-8.9158333,505,5188
Shunagh,Cork,51.5822222,-8.7188889,3,1459
Sixmilewater,Cork,52.0113889,-8.5638889,492,5201
Skahanagh,Cork,51.5519444,-9.1322222,91,4009
Skahanagh More,Cork,52.2516667,-8.5413889,275,5276
Skeagh,Cork,51.5863889,-9.3547222,249,5233
Skenakilla Cross Roads,Cork,52.1930556,-8.5177778,252,5178
Skeugh Cross Roads,Cork,51.7627778,-8.6033333,255,5229
Skibbereen,Cork,51.55,-9.2666667,347,5233
Skull,Cork,51.5333333,-9.5333333,144,2816
Sleveen,Cork,51.6469444,-8.9638889,249,5243
Slievemore,Cork,51.4622222,-9.4336111,0,795
Sligga Bridge,Cork,51.8011111,-8.4936111,246,5223
Sluggary Cross Roads,Cork,51.9733333,-8.5552778,436,5205
Smithville,Cork,51.5405556,-9.2080556,262,3061
South Ring,Cork,51.6061111,-8.8536111,114,3472
Spital,Cork,52.2508333,-8.6547222,374,5176
Spital Bridge,Cork,51.635,-8.7761111,3,5097
Spreads Cross Roads,Cork,51.7819444,-8.6652778,252,5229
Spreads Cross Roads,Cork,51.7819444,-8.6652778,252,5229
Springhill,Cork,52.14,-8.4552778,269,5184
Spurree Cross Roads,Cork,52.0941667,-8.2405556,219,5188
Sraid an Mhuilinn,Cork,52.0666667,-9.0666667,446,5190
Sráid an Mhuilinn,Cork,52.0666667,-9.0666667,446,5190
Sraleigh,Cork,51.85,-8.5827778,426,5219
Srelane Cross,Cork,51.8836111,-8.6772222,246,5215
Statty Bridge,Cork,51.9002778,-8.2830556,3,4528
Strawhall Cross Roads,Cork,51.8247222,-8.8077778,518,5223
Stuake,Cork,51.9833333,-8.7666667,551,5205
Subulter,Cork,52.1833333,-8.8130556,337,5178
Sullane Bridge,Cork,51.9136111,-9.0538889,377,5215
Summer Cove,Cork,51.7033333,-8.5022222,121,3480
Summer Hill,Cork,52.1272222,-8.6377778,262,5184
Summor Cove,Cork,51.7033333,-8.5022222,121,3480
Sunnyside,Cork,52.1575,-8.6508333,269,5184
Tanyara Bridge,Cork,51.7925,-8.8377778,498,5223
Tarrants Cross Roads,Cork,52.2858333,-8.8738889,488,5172
Tarrants Cross Roads,Cork,52.2858333,-8.8738889,488,5172
Teerelton,Cork,51.8513889,-8.9844444,498,5219
Temple Bridge,Cork,51.5836111,-9.022222,75,4622
Templebodan,Cork,51.9986111,-8.2458333,436,5205
Templemartin,Cork,51.8216667,-8.7797222,475,5223
Templemichael Bridge,Cork,51.9697222,-8.4391667,357,5205
Templenoe,Cork,51.8666667,-9.6833333,0,1944
Thades Cross Roads,Cork,51.9005556,-8.1191667,236,5215
Thades Cross Roads,Cork,51.9005556,-8.1191667,236,5215
The Castles,Cork,52.1344444,-8.6394444,206,5184
The Counsellors Cross Roads,Cork,51.6227778,-9.0383333,538,4622
The Glen,Cork,52.1636111,-8.5297222,213,5184
The Hatters Cross Roads,Cork,51.7322222,-8.9538889,242,5233
The Rodney,Cork,52.26,-8.9258333,531,5200
Tigh Molaige,Cork,51.6422222,-8.7730556,42,5097
Timoleague,Cork,51.6422222,-8.7730556,42,5097
Tinkers Cross Roads,Cork,51.76,-8.7961111,249,5229
Tinkers Cross Roads,Cork,51.76,-8.7961111,249,5229
Toames,Cork,51.8658333,-8.9827778,492,5219
Tober,Cork,52.0677778,-9.1261111,488,4986
Tobernaclougha Cross Roads,Cork,52.2519444,-9.0252778,725,5210
Togher,Cork,51.7811111,-9.1555556,475,5229
Togher,Cork,51.8775,-8.4916667,203,5215
Togher Bridge,Cork,51.7769444,-9.1708333,449,5229
Togher Cross Roads,Cork,52.1988889,-8.4077778,249,5178
Toom,Cork,51.7602778,-9.0394444,377,5229
Toon Bridge,Cork,51.8819444,-9.0244444,341,5215
Toorboney,Cork,52.0491667,-9.1658333,1072,4986
Tooreen,Cork,52.2916667,-8.5555556,898,5358
Tooreen Beg,Cork,51.6861111,-9.8475,856,4253
Tooreenavuscaun,Cork,52.1708333,-9.1172222,669,5178
Tooreendermot,Cork,52.2433333,-9.1019444,885,5174
Toormore,Cork,51.5208333,-9.6561111,0,2703
Torpys Cross Roads,Cork,52.1813889,-8.5566667,255,5178
Tower,Cork,51.9166667,-8.6,219,5209
Tower Bridge,Cork,51.9233333,-8.6055556,223,5209
Tower Village,Cork,51.9166667,-8.6,219,5209
Tracarta,Cork,51.5158333,-9.1938889,0,3061
Tracton,Cork,51.7613889,-8.4163889,246,5056
Trafrask,Cork,51.6916667,-9.6705556,124,3110
Trafrask Bridge,Cork,51.6941667,-9.6619444,134,3091
Tramore,Cork,51.8772222,-8.445,150,5215
Travara Bridge,Cork,51.6777778,-10.05556,288,1197
Tuough Bridge,Cork,51.8130556,-8.7102778,439,5223
Turnaspidary,Cork,51.8666667,-9.1811111,616,5219
Turnpike Cross,Cork,52.2233333,-8.5819444,269,5179
Unionhall,Cork,51.55,-9.1333333,91,4009
Upper Convamore,Cork,52.1586111,-8.4111111,173,5184
Upper Glanmire Bridge,Cork,51.9552778,-8.4175,314,5209
Upton,Cork,51.7922222,-8.6733333,246,5223
Urraghil,Cork,52.1611111,-9.1155556,616,5184
Vicarstown,Cork,51.9333333,-8.65,249,5209
Vicarstown Cross Roads,Cork,51.9333333,-8.65,249,5209
Walshtown,Cork,51.9830556,-8.1872222,456,5205
Walterstown,Cork,51.8633333,-8.2333333,3,3995
Warners Cross Roads,Cork,51.8305556,-8.5852778,498,5223
Warners Cross Roads,Cork,51.8305556,-8.5852778,498,5223
Waterfall,Cork,51.8594444,-8.5591667,357,5219
Watergrasshill,Cork,52.0113889,-8.3441667,518,5201
West Village,Cork,51.8833333,-8.6,216,5215
Whitechurch,Cork,51.9813889,-8.5138889,498,5205
Whitegate,Cork,51.8305556,-8.2297222,3,2484
Whites Cross,Cork,51.9375,-8.4491667,259,5209
